     3.04           OBSERVATION DATA    M                   RINEX VERSION / TYPE
JPS2RIN v.2.0.191   JAVAD GNSS          20210624 010522 UTC PGM / RUN BY / DATE
GGN                 NASA GODDARD SPACE FLIGHT CENTER        OBSERVER / AGENCY
GODS                                                        MARKER NAME
40451M128                                                   MARKER NUMBER
02704               JAVAD TRE_3 DELTA   4.0.02              REC # / TYPE / VERS
  1130752.3120 -4831349.1180  3994098.9450                  APPROX POSITION XYZ
02083               JAVRINGANT_DM   SCIS                    ANT # / TYPE
        0.0083        0.0000        0.0000                  ANTENNA: DELTA H/E/N
G   18 C1C L1C S1C C1W L1W S1W C2X L2X S2X C2W L2W S2W C5X  SYS / # / OBS TYPES
       L5X S5X C1X L1X S1X                                  SYS / # / OBS TYPES
R   15 C1C L1C S1C C1P L1P S1P C2C L2C S2C C2P L2P S2P C3X  SYS / # / OBS TYPES
       L3X S3X                                              SYS / # / OBS TYPES
E   15 C1X L1X S1X C8X L8X S8X C6X L6X S6X C7X L7X S7X C5X  SYS / # / OBS TYPES
       L5X S5X                                              SYS / # / OBS TYPES
C   18 C2I L2I S2I C8X L8X S8X C6I L6I S6I C7Z L7Z S7Z C5X  SYS / # / OBS TYPES
       L5X S5X C1X L1X S1X                                  SYS / # / OBS TYPES
 11 R01  1 R06 -4 R07  5 R08  6 R09 -2 R10 -7 R16 -1 R21  4 GLONASS SLOT / FRQ #
    R22 -3 R23  3 R24  2                                    GLONASS SLOT / FRQ #
    30.000                                                  INTERVAL
  2021     6    24     0     0    0.0000000     GPS         TIME OF FIRST OBS
  2021     6    24     0    59   30.0000000     GPS         TIME OF LAST OBS
    18                                                      LEAP SECONDS
G L1C  0.00000  11 G05 G10 G13 G15 G18 G20 G23 G24 G27 G29  SYS / PHASE SHIFT
                   G32                                      SYS / PHASE SHIFT
G L1W -0.25000  11 G05 G10 G13 G15 G18 G20 G23 G24 G27 G29  SYS / PHASE SHIFT
                   G32                                      SYS / PHASE SHIFT
G L1X -0.25000  02 G18 G23                                  SYS / PHASE SHIFT
G L2W  0.00000  11 G05 G10 G13 G15 G18 G20 G23 G24 G27 G29  SYS / PHASE SHIFT
                   G32                                      SYS / PHASE SHIFT
G L2X  0.25000  09 G05 G10 G15 G18 G23 G24 G27 G29 G32      SYS / PHASE SHIFT
G L5X  0.25000  06 G10 G18 G23 G24 G27 G32                  SYS / PHASE SHIFT
R L1C  0.00000  11 R01 R06 R07 R08 R09 R10 R16 R21 R22 R23  SYS / PHASE SHIFT
                   R24                                      SYS / PHASE SHIFT
R L1P -0.25000  11 R01 R06 R07 R08 R09 R10 R16 R21 R22 R23  SYS / PHASE SHIFT
                   R24                                      SYS / PHASE SHIFT
R L2C  0.25000  10 R01 R07 R08 R09 R10 R16 R21 R22 R23 R24  SYS / PHASE SHIFT
R L2P  0.00000  08 R01 R07 R08 R09 R16 R21 R22 R24          SYS / PHASE SHIFT
R L3X  0.25000  02 R09 R21                                  SYS / PHASE SHIFT
E L1X  0.50000  10 E04 E09 E11 E12 E18 E19 E21 E27 E33 E36  SYS / PHASE SHIFT
E L5X  0.25000  10 E04 E09 E11 E12 E18 E19 E21 E27 E33 E36  SYS / PHASE SHIFT
E L6X  0.50000  10 E04 E09 E11 E12 E18 E19 E21 E27 E33 E36  SYS / PHASE SHIFT
E L7X  0.25000  10 E04 E09 E11 E12 E18 E19 E21 E27 E33 E36  SYS / PHASE SHIFT
E L8X  0.25000  10 E04 E09 E11 E12 E18 E19 E21 E27 E33 E36  SYS / PHASE SHIFT
C L1X  0.00000  11 C19 C20 C22 C23 C29 C30 C32 C35 C37 C44  SYS / PHASE SHIFT
                   C46                                      SYS / PHASE SHIFT
C L2I  0.00000  12 C19 C20 C22 C23 C29 C30 C32 C35 C37 C44  SYS / PHASE SHIFT
                   C46 C57                                  SYS / PHASE SHIFT
C L5X  0.25000  11 C19 C20 C22 C23 C29 C30 C32 C35 C37 C44  SYS / PHASE SHIFT
                   C46                                      SYS / PHASE SHIFT
C L6I  0.00000  12 C19 C20 C22 C23 C29 C30 C32 C35 C37 C44  SYS / PHASE SHIFT
                   C46 C57                                  SYS / PHASE SHIFT
C L7Z  0.25000  11 C19 C20 C22 C23 C29 C30 C32 C35 C37 C44  SYS / PHASE SHIFT
                   C46                                      SYS / PHASE SHIFT
C L8X  0.25000  11 C19 C20 C22 C23 C29 C30 C32 C35 C37 C44  SYS / PHASE SHIFT
                   C46                                      SYS / PHASE SHIFT
    44                                                      # OF SATELLITES
   G05   120   120   120   120   120   120   120   120   120PRN / # OF OBS
         120   120   120     0     0     0     0     0     0PRN / # OF OBS
   G10   120   120   120   120   120   120   120   120   120PRN / # OF OBS
         120   120   120   120   120   120     0     0     0PRN / # OF OBS
   G13   120   120   120   120   120   120     0     0     0PRN / # OF OBS
         120   120   120     0     0     0     0     0     0PRN / # OF OBS
   G15   120   120   120   120   120   120   120   120   120PRN / # OF OBS
         120   120   120     0     0     0     0     0     0PRN / # OF OBS
   G18   120   120   120   120   120   120   120   120   120PRN / # OF OBS
         120   120   120   120   120   120   120   120   120PRN / # OF OBS
   G20   113   113   113    97    97    97     0     0     0PRN / # OF OBS
          97    97    97     0     0     0     0     0     0PRN / # OF OBS
   G23   120   120   120   120   120   120   120   120   120PRN / # OF OBS
         120   120   120   120   120   120   120   120   120PRN / # OF OBS
   G24   120   120   120   120   120   120   120   120   120PRN / # OF OBS
         120   120   120   120   120   120     0     0     0PRN / # OF OBS
   G27   120   120   120   120   120   120   120   120   120PRN / # OF OBS
         120   120   120   120   120   120     0     0     0PRN / # OF OBS
   G29   105   105   105    81    81    81   104   104   104PRN / # OF OBS
          81    81    81     0     0     0     0     0     0PRN / # OF OBS
   G32    67    67    67    61    61    61    67    67    67PRN / # OF OBS
          61    61    61    67    67    67     0     0     0PRN / # OF OBS
   R01   120   120   120   120   120   120   120   120   120PRN / # OF OBS
         120   120   120     0     0     0                  PRN / # OF OBS
   R06    39    39    39    39    39    39     0     0     0PRN / # OF OBS
           0     0     0     0     0     0                  PRN / # OF OBS
   R07   120   120   120   120   120   120   120   120   120PRN / # OF OBS
         120   120   120     0     0     0                  PRN / # OF OBS
   R08   120   120   120   120   120   120   120   120   120PRN / # OF OBS
         120   120   120     0     0     0                  PRN / # OF OBS
   R09   120   120   120   120   120   120   120   120   120PRN / # OF OBS
         120   120   120   120   120   120                  PRN / # OF OBS
   R10    74    74    74    74    74    74     3     3     3PRN / # OF OBS
           0     0     0     0     0     0                  PRN / # OF OBS
   R16   120   120   120   120   120   120   120   120   120PRN / # OF OBS
         120   120   120     0     0     0                  PRN / # OF OBS
   R21    29    29    29    29    29    29    29    29    29PRN / # OF OBS
          25    25    25    29    29    29                  PRN / # OF OBS
   R22   120   120   120   120   120   120   120   120   120PRN / # OF OBS
         120   120   120     0     0     0                  PRN / # OF OBS
   R23   120   120   120   120   120   120     2     2     2PRN / # OF OBS
           0     0     0     0     0     0                  PRN / # OF OBS
   R24   120   120   120   120   120   120   120   120   120PRN / # OF OBS
         120   120   120     0     0     0                  PRN / # OF OBS
   E04   120   120   120   120   120   120   120   120   120PRN / # OF OBS
         120   120   120   120   120   120                  PRN / # OF OBS
   E09    28    28    28    28    28    28    28    28    28PRN / # OF OBS
          28    28    28    28    28    28                  PRN / # OF OBS
   E11   120   120   120   120   120   120   120   120   120PRN / # OF OBS
         120   120   120   120   120   120                  PRN / # OF OBS
   E12   120   120   120   120   120   120   120   120   120PRN / # OF OBS
         120   120   120   120   120   120                  PRN / # OF OBS
   E18   120   120   120   120   120   120   120   120   120PRN / # OF OBS
         120   120   120   120   120   120                  PRN / # OF OBS
   E19   120   120   120   120   120   120   120   120   120PRN / # OF OBS
         120   120   120   120   120   120                  PRN / # OF OBS
   E21    48    48    48    47    47    47    47    47    47PRN / # OF OBS
          47    47    47    47    47    47                  PRN / # OF OBS
   E27    52    52    52    52    52    52    52    52    52PRN / # OF OBS
          52    52    52    52    52    52                  PRN / # OF OBS
   E33   120   120   120   120   120   120   120   120   120PRN / # OF OBS
         120   120   120   120   120   120                  PRN / # OF OBS
   E36    11    11    11    11    11    11    11    11    11PRN / # OF OBS
          11    11    11    11    11    11                  PRN / # OF OBS
   C19   120   120   120   120   120   120   120   120   120PRN / # OF OBS
         120   120   120   120   120   120   120   120   120PRN / # OF OBS
   C20   120   120   120   120   120   120   120   120   120PRN / # OF OBS
         120   120   120   120   120   120   120   120   120PRN / # OF OBS
   C22    66    66    66    61    61    61    66    66    66PRN / # OF OBS
          63    63    63    65    65    65    41    41    41PRN / # OF OBS
   C23   120   120   120   120   120   120   120   120   120PRN / # OF OBS
         120   120   120   120   120   120   120   120   120PRN / # OF OBS
   C29   120   120   120   120   120   120   120   120   120PRN / # OF OBS
         120   120   120   120   120   120   120   120   120PRN / # OF OBS
   C30    70    70    70    70    70    70    79    79    79PRN / # OF OBS
          70    70    70    81    81    81    71    71    71PRN / # OF OBS
   C32   120   120   120   120   120   120   120   120   120PRN / # OF OBS
         120   120   120   120   120   120   120   120   120PRN / # OF OBS
   C35   120   120   120   120   120   120   120   120   120PRN / # OF OBS
         120   120   120   120   120   120   120   120   120PRN / # OF OBS
   C37   120   120   120   120   120   120   120   120   120PRN / # OF OBS
         120   120   120   120   120   120   120   120   120PRN / # OF OBS
   C44    79    79    79    79    79    79    81    81    81PRN / # OF OBS
          79    79    79    81    81    81    73    73    73PRN / # OF OBS
   C46   100   100   100   100   100   100   112   112   112PRN / # OF OBS
         100   100   100   113   113   113    89    89    89PRN / # OF OBS
   C57   120   120   120     0     0     0   120   120   120PRN / # OF OBS
           0     0     0     0     0     0     0     0     0PRN / # OF OBS
                                                            END OF HEADER
> 2021 06 24 00 00  0.0000000  0 36      -0.000477866714
G05  22659700.596   119077555.884 7        45.000    22659700.466   119077554.882 7        43.000    22659699.306    92787723.537 7        42.500    22659698.776    92787714.528 7        43.000                                                                                                  
G10  24266345.719   127520595.564 6        37.250    24266346.039   127520520.566 4        25.250    24266348.569    99366655.688 7        42.500    24266349.389    99366643.698 4        25.250    24266347.659    95226367.883 7        47.000                                                  
G13  21787670.960   114495026.891 7        47.250    21787670.660   114495016.897 6        36.250                                                    21787668.430    89216906.732 6        36.250                                                                                                  
G15  20000419.209   105102994.509 8        50.000    20000419.209   105102982.504 7        46.000    20000416.869    81898459.713 8        51.500    20000416.719    81898446.718 7        46.000                                                                                                  
G18  20187612.297   106086650.044 8        49.000    20187612.427   106086649.052 7        44.500    20187610.807    82664934.278 9        54.750    20187610.847    82664930.283 7        44.500    20187614.777    79220559.289 9        58.250    20187612.137   106086647.049 8        50.000  
G20  22959593.832   120653493.821 7        42.000    22959593.852   120653505.812 4        28.250                                                    22959593.182    94015724.404 4        28.250                                                                                                  
G23  21522252.062   113100246.204 7        45.500    21522252.052   113100241.209 6        39.000    21522250.212    88130072.815 8        49.000    21522250.192    88130070.808 6        39.000    21522254.602    84457989.260 9        54.250    21522251.552   113100247.210 8        47.500  
G24  22146851.989   116382622.988 7        42.000    22146852.359   116382539.987 5        35.250    22146853.869    90687716.246 7        46.750    22146854.109    90687705.250 5        35.250    22146854.589    86909066.930 8        53.000                                                  
G27  24826941.349   130466465.437 5        33.250    24826941.889   130466467.448 3        18.750    24826942.739   101662180.917 6        36.500    24826943.029   101662184.912 3        18.750    24826943.749    97426261.428 7        44.750                                                  
G29  23360977.815   122762750.042 7        41.750    23360978.295   122762749.046 5        30.500    23360978.535    95659278.502 7        42.250    23360977.915    95659282.497 5        30.500                                                                                                  
R01  23168796.037   123850430.887 6        38.250    23168796.267   123850510.899 6        37.250    23168800.237    96328116.471 5        35.000    23168801.497    96328165.470 5        33.500                                                  
R06  23301346.653   124340465.788 5        35.000    23301347.423   124340473.771 5        34.750                                                                                                                                                  
R07  20036388.097   107256425.540 8        48.500    20036387.797   107256433.546 8        48.750    20036387.537    83421689.415 8        50.750    20036387.877    83421681.411 8        50.000                                                  
R08  20117696.953   107729433.067 8        47.500    20117697.703   107729452.079 8        47.500    20117696.543    83789610.950 8        50.750    20117696.813    83789597.950 8        49.500                                                  
R09  23166382.559   123707191.940 7        43.000    23166382.229   123707217.928 7        43.250    23166383.609    96216728.840 6        41.250    23166384.189    96216720.838 6        40.500    23166371.269    92886189.177 7        45.250  
R16  23069094.598   123230980.610 6        39.500    23069094.308   123230984.621 6        39.250    23069094.888    95846329.590 5        33.750    23069094.728    95846319.588 5        33.750                                                  
R21  23369068.566   125052581.119 6        39.750    23369068.516   125052599.114 6        39.750    23369072.916    97263113.367 7        41.750    23369073.276    97263108.357 6        40.500    23369058.676    93698805.596 7        43.750  
R22  19897204.487   106212643.866 7        41.500    19897203.597   106212638.867 7        41.500    19897206.697    82609832.501 6        39.000    19897204.607    82609825.495 6        38.500                                                  
R23  20604962.604   110222744.958 8        47.750    20604962.694   110222692.961 8        47.750                                                                                                                                                  
R24  23969613.215   128176311.374 6        39.000    23969611.015   128176311.360 6        37.750    23969612.575    99692685.050 6        36.750    23969611.605    99692684.054 6        35.750                                                  
E04  24922066.280   130966412.836 8        48.000    24922065.880    99075265.668 9        55.500    24922064.750   106303924.797 8        50.000    24922064.900   100350910.690 9        53.500    24922067.660    97799618.694 8        53.000  
E11  23750411.679   124809269.538 7        43.000    23750408.679    94417407.451 8        49.750    23750407.579   101306230.324 7        44.750    23750407.559    95633082.718 7        47.250    23750410.269    93201734.230 7        47.000  
E12  21662712.180   113838353.748 8        47.750    21662709.460    86117988.954 9        56.500    21662707.430    92401269.028 8        52.000    21662708.770    87226800.483 9        55.000    21662710.900    85009171.473 9        53.750  
E18  22857267.685   120115742.475 7        46.000    22857268.715    90866777.684 8        53.000    22857266.105    97496542.069 7        46.500    22857267.485    92036735.211 8        50.500    22857270.515    89696818.191 8        50.500  
E19  23226691.571   122057160.085 8        47.500    23226690.181    92335451.952 9        54.500    23226689.351    99072370.812 8        49.750    23226689.401    93524322.472 8        52.750    23226691.911    91146587.477 8        51.500  
E33  25603402.010   134546797.370 7        45.500    25603402.020   101783796.908 8        52.750    25603401.330   109210079.575 8        48.000    25603400.940   103094317.396 8        50.500    25603403.830   100473276.462 8        50.000  
C19  22727988.018   118350673.818 8        47.500    22727983.488    90352926.317 9        55.000    22727979.758    96169619.296 8        51.250    22727983.038    91516261.052 8        52.750    22727985.278    89189595.062 8        53.000    22727984.298   119436456.459 7        47.000  
C20  22032892.148   114731130.777 8        51.000    22032885.168    87589630.708 9        57.250    22032880.958    93228431.524 9        53.500    22032884.508    88717393.548 9        55.500    22032886.838    86461895.345 9        55.500    22032889.258   115783698.600 8        50.250  
C23  26023728.475   135512402.921 6        38.500    26023721.985   103454726.717 8        48.000    26023718.035   110114889.441 6        40.000    26023722.215   104786761.177 7        45.250    26023724.305   102122706.735 7        45.750    26023725.975   136755638.162 6        37.250  
C29  22430395.388   116800969.197 8        49.250    22430390.498    89169804.567 9        55.500    22430390.728    94910354.099 8        51.500    22430389.688    90317912.877 8        53.250    22430392.498    88021710.730 9        53.500    22430392.938   117872532.976 8        47.750  
C30  25121104.068   130812168.303 7        41.500    25121105.368    99866424.960 7        47.250    25121104.458   106295603.685 7        42.000    25121104.748   101152253.612 7        45.000    25121107.198    98580604.780 7        44.250    25121101.268   132012262.453 6        39.250  
C32  25122357.601   130818758.570 7        43.250    25122359.481    99871500.357 8        49.250    25122357.181   106300983.841 7        45.750    25122359.141   101157397.206 7        47.000    25122361.211    98585617.985 7        46.250    25122356.011   132018906.631 7        42.750  
C35  23709649.717   123462423.905 7        46.000    23709646.917    94255368.039 8        53.000    23709645.657   100323301.185 8        48.500    23709646.377    95468955.617 8        50.750    23709648.407    93041791.940 8        50.500    23709646.667   124595072.549 7        44.500  
C37  25174154.626   131088475.605 6        39.750    25174158.236   100077400.187 8        48.500    25174155.866   106520146.956 7        43.500    25174157.766   101365950.385 7        46.000    25174159.836    98788868.469 7        45.750    25174153.156   132291091.124 6        40.000  
C46                                                                                                                                                                                                  26306347.116   103231759.638 5        30.500                                                  
C57  29028197.168   151157438.284 6        39.500                                                    29028315.918   122828320.448 6        39.000                                                                                                                                                  
> 2021 06 24 00 00 30.0000000  0 36      -0.000477865124
G05  22673612.254   119150660.872 7        44.500    22673611.934   119150659.860 7        42.750    22673610.504    92844688.415 7        42.250    22673610.224    92844679.413 7        42.750                                                                                                  
G10  24251485.432   127442502.144 6        37.750    24251486.022   127442427.157 4        25.250    24251487.922    99305803.721 7        42.250    24251488.012    99305791.714 4        25.250    24251486.512    95168051.407 7        47.250                                                  
G13  21803526.174   114578349.073 7        47.000    21803526.434   114578339.078 6        35.500                                                    21803524.334    89281833.069 6        35.500                                                                                                  
G15  20007364.528   105139493.762 8        50.000    20007364.918   105139481.759 7        45.750    20007362.518    81926900.688 8        51.750    20007362.238    81926887.691 7        45.750                                                                                                  
G18  20181482.797   106054439.837 8        48.750    20181483.067   106054438.845 7        44.500    20181481.417    82639835.412 9        54.750    20181481.387    82639831.417 7        44.500    20181485.417    79196506.206 9        58.000    20181482.707   106054436.843 8        49.500  
G20  22974147.597   120729970.778 7        41.500    22974146.437   120729982.774 4        28.250                                                    22974145.767    94075316.794 4        28.250                                                                                                  
G23  21511551.554   113044013.608 7        46.000    21511551.524   113044008.612 6        39.000    21511549.724    88086255.217 8        49.000    21511549.644    88086253.223 6        39.000    21511553.864    84415997.400 9        54.000    21511551.054   113044014.612 8        47.500  
G24  22129375.326   116290784.432 7        42.000    22129376.436   116290701.434 6        35.750    22129377.566    90616153.804 7        46.750    22129377.676    90616142.799 6        35.750    22129377.886    86840486.254 8        52.500                                                  
G27  24815641.247   130407079.543 5        33.000    24815640.127   130407081.560 3        19.500    24815642.327   101615906.263 6        39.500    24815642.197   101615910.236 3        19.500    24815643.017    97381914.839 7        46.000                                                  
G29  23380356.965   122864589.479 6        41.250    23380357.635   122864588.469 5        30.250    23380357.575    95738633.799 6        41.250    23380356.765    95738637.807 5        30.250                                                                                                  
R01  23152398.848   123762776.511 6        38.250    23152398.348   123762856.509 6        38.000    23152401.628    96259940.883 5        34.500    23152403.008    96259989.882 5        33.000                                                  
R06  23319625.040   124438002.403 5        33.500    23319623.470   124438010.402 5        34.000                                                                                                                                                  
R07  20046368.247   107309852.632 8        50.000    20046368.297   107309860.636 8        50.000    20046368.397    83463243.791 8        50.750    20046368.277    83463235.789 8        49.750                                                  
R08  20111451.028   107695986.193 8        48.500    20111451.678   107696005.209 8        48.500    20111450.438    83763596.721 8        50.500    20111450.908    83763583.717 8        49.750                                                  
R09  23150545.619   123622626.976 7        43.750    23150546.089   123622652.964 7        43.750    23150547.839    96150956.198 7        41.500    23150547.789    96150948.179 6        40.500    23150534.519    92822693.261 7        44.750  
R16  23067835.621   123224253.928 6        41.250    23067836.451   123224257.949 6        40.250    23067838.251    95841097.750 6        36.250    23067836.331    95841087.753 5        34.500                                                  
R21  23394775.106   125190139.852 6        41.000    23394775.526   125190157.858 6        41.000    23394779.106    97370103.380 7        42.000    23394779.686    97370098.371 6        40.500    23394764.736    93801874.850 7        43.750  
R22  19912094.779   106292132.949 7        42.250    19912095.219   106292127.948 7        42.000    19912095.269    82671657.314 6        39.250    19912096.479    82671650.317 6        38.250                                                  
R23  20590472.819   110145231.630 8        48.750    20590472.349   110145179.626 8        49.000                                                                                                                                                  
R24  23946016.780   128050132.743 6        38.250    23946015.280   128050132.754 6        37.500    23946016.330    99594546.209 6        36.500    23946016.310    99594545.200 6        35.750                                                  
E04  24911963.987   130913324.865 8        48.000    24911963.527    99035104.989 9        55.500    24911962.547   106260833.934 8        50.000    24911962.537   100310232.921 9        53.500    24911965.207    97759975.106 8        53.000  
E11  23737477.860   124741302.376 7        43.500    23737474.930    94365990.743 8        50.000    23737473.670   101251062.185 7        45.250    23737474.010    95581003.993 8        47.750    23737476.780    93150979.542 7        47.000  
E12  21664839.917   113849536.332 8        47.750    21664837.447    86126448.502 9        56.500    21664835.427    92410345.797 8        52.000    21664836.727    87235368.951 9        54.750    21664838.917    85017522.099 9        53.750  
E18  22891387.478   120295043.029 7        45.750    22891388.518    91002417.336 8        53.000    22891385.878    97642078.189 7        46.750    22891387.558    92174121.300 8        50.750    22891390.468    89830711.413 8        50.500  
E19  23231501.269   122082434.744 7        47.250    23231499.809    92354572.060 9        54.500    23231498.789    99092885.952 8        49.500    23231498.999    93543688.764 8        52.750    23231501.479    91165461.401 8        51.500  
E33  25618729.316   134627343.717 7        46.000    25618729.536   101844729.650 8        53.000    25618728.946   109275458.076 8        48.250    25618728.635   103156034.688 8        50.750    25618731.365   100533424.659 8        50.250  
C19  22718940.996   118303568.113 8        47.500    22718937.306    90316964.251 9        54.750    22718933.236    96131342.069 8        51.250    22718936.876    91479835.951 8        52.500    22718939.116    89154096.030 8        52.750    22718937.986   119388918.586 7        46.750  
C20  22036881.626   114751902.947 8        50.750    22036874.256    87605488.875 9        57.000    22036870.046    93245310.610 8        53.250    22036873.606    88733455.895 9        55.250    22036875.906    86477549.331 9        55.500    22036878.436   115804661.345 8        50.250  
C23  26024574.624   135516793.347 6        40.000    26024565.224   103458078.561 8        47.500    26024562.274   110118457.062 6        41.000    26024564.464   104790156.177 7        44.250    26024567.034   102126015.420 7        45.250    26024568.914   136760068.896 6        38.000  
C29  22440205.581   116852054.481 8        49.250    22440200.941    89208804.771 9        55.500    22440200.901    94951865.053 8        51.500    22440200.191    90357415.232 8        53.250    22440202.961    88060208.782 8        53.250    22440203.321   117924086.926 8        47.750  
C30  25140790.707   130914678.733 6        40.750    25140791.437    99944684.843 7        47.000    25140790.857   106378901.771 7        42.250    25140790.547   101231521.133 7        44.750    25140793.527    98657857.018 7        44.250    25140787.787   132115713.360 6        39.500  
C32  25136160.445   130890629.990 7        43.500    25136161.695    99926369.378 8        49.500    25136159.045   106359385.212 7        45.250    25136161.425   101212972.704 7        47.000    25136163.555    98639780.532 7        46.500    25136158.295   132091437.393 7        42.500  
C35  23702357.795   123424453.225 7        45.750    23702355.055    94226379.968 8        53.250    23702354.085   100292446.915 8        48.250    23702354.685    95439594.309 8        51.000    23702356.475    93013177.104 8        50.500    23702354.805   124556753.510 7        44.750  
C37  25162817.418   131029442.851 6        39.500    25162821.628   100032332.674 8        48.750    25162819.478   106472178.082 7        44.000    25162821.528   101320302.594 7        46.500    25162823.508    98744381.237 7        46.000    25162817.138   132231516.818 6        40.000  
C46                                                                                                  26289896.154   111241157.21815        31.250                                                    26289896.764   103167209.318 4        27.500                                                  
C57  29014093.745   151084002.748 6        38.750                                                    29014213.705   122768648.074 6        39.250                                                                                                                                                  
> 2021 06 24 00 01  0.0000000  0 36      -0.000477865845
G05  22687546.722   119223889.152 7        44.500    22687546.952   119223888.155 7        42.500    22687545.402    92901749.400 7        42.000    22687545.212    92901740.401 7        42.500                                                                                                  
G10  24236629.120   127364429.109 6        37.250    24236629.020   127364354.096 4        25.250    24236630.860    99244967.651 7        42.500    24236631.300    99244955.639 4        25.250    24236629.940    95109750.192 8        47.750                                                  
G13  21819440.593   114661978.189 7        47.000    21819440.523   114661968.189 6        36.250                                                    21819438.523    89346998.577 6        36.250                                                                                                  
G15  20014398.925   105176458.607 8        50.500    20014399.055   105176446.600 7        45.750    20014396.745    81955704.455 8        51.750    20014396.425    81955691.458 7        45.750                                                                                                  
G18  20175445.944   106022716.085 8        48.750    20175446.244   106022715.092 7        44.750    20175444.454    82615115.600 9        54.500    20175444.514    82615111.607 7        44.750    20175448.624    79172816.390 9        58.000    20175445.994   106022713.089 8        50.000  
G20  22988728.092   120806593.135 7        42.250    22988727.542   120806605.142 4        28.500                                                    22988727.462    94135022.479 4        28.500                                                                                                  
G23  21500880.380   112987938.959 7        46.250    21500880.540   112987933.958 6        39.000    21500879.170    88042560.696 8        49.000    21500878.970    88042558.696 6        39.000    21500883.410    84374123.481 9        54.500    21500880.440   112987939.949 7        47.250  
G24  22111957.109   116199247.704 7        42.500    22111956.849   116199164.701 6        35.750    22111958.609    90544826.515 7        47.000    22111958.879    90544815.518 6        35.750    22111959.259    86772130.963 8        52.750                                                  
G27  24804429.576   130348162.258 5        31.250    24804430.436   130348164.248 3        18.750    24804431.336   101569996.713 6        40.250    24804431.796   101570000.705 3        18.750    24804431.356    97337918.164 7        46.000                                                  
G29  23399762.384   122966566.080 6        41.000    23399762.824   122966565.097 5        30.000    23399762.654    95818096.008 6        41.000    23399762.744    95818100.012 5        30.000                                                                                                  
R01  23136041.661   123675322.036 6        38.500    23136038.911   123675402.033 6        38.000    23136045.181    96191920.783 6        35.500    23136043.521    96191969.780 5        34.250                                                  
R06  23337894.992   124535483.961 6        35.750    23337894.422   124535491.967 5        35.250                                                                                                                                                  
R07  20056394.766   107363525.540 8        51.250    20056395.086   107363533.545 8        51.500    20056394.796    83504989.366 8        51.000    20056395.306    83504981.364 8        50.000                                                  
R08  20105274.552   107662910.292 8        49.750    20105275.002   107662929.301 8        49.500    20105274.492    83737871.023 8        50.500    20105274.042    83737858.020 8        49.250                                                  
R09  23134775.557   123538414.920 7        45.000    23134776.247   123538440.915 7        44.500    23134777.557    96085458.013 7        42.250    23134777.637    96085449.995 7        41.500    23134764.307    92759462.319 7        44.750  
R16  23066709.799   123218247.270 7        41.500    23066711.319   123218251.279 6        41.000    23066713.389    95836425.922 6        38.250    23066714.239    95836415.927 6        36.000                                                  
R21  23420499.929   125327799.874 6        40.750    23420500.279   125327817.882 7        41.500    23420504.239    97477172.177 6        41.000    23420504.859    97477167.172 6        39.750    23420489.699    93905019.998 7        43.250  
R22  19927110.653   106372281.668 7        42.500    19927109.953   106372276.675 7        42.250    19927111.563    82733995.185 6        39.000    19927110.443    82733988.181 6        38.250                                                  
R23  20576101.480   110068357.402 8        49.750    20576101.190   110068305.397 8        49.750                                                                                                                                                  
R24  23922451.126   127924122.438 6        38.250    23922450.946   127924122.443 6        37.750    23922454.426    99496538.282 6        37.500    23922451.906    99496537.263 6        36.000                                                  
E04  24901904.774   130860463.284 8        47.750    24901904.254    98995115.582 9        55.750    24901902.844   106217926.832 8        49.750    24901903.334   100269728.629 9        53.750    24901906.154    97720500.588 9        53.500  
E11  23724585.871   124673552.714 7        43.250    23724582.681    94314738.597 8        50.000    23724581.301   101196070.600 7        45.000    23724581.631    95529091.947 8        47.750    23724584.231    93100387.292 7        47.000  
E12  21667044.067   113861117.842 8        48.000    21667041.337    86135209.821 9        56.500    21667039.277    92419746.355 8        51.750    21667040.647    87244243.079 9        55.000    21667042.837    85026170.613 9        53.750  
E18  22925553.506   120474585.475 7        45.750    22925554.346    91138239.978 8        53.250    22925551.546    97787810.658 7        46.750    22925553.056    92311692.734 8        50.500    22925556.306    89964785.260 8        51.000  
E19  23236355.444   122107943.500 8        47.500    23236353.954    92373869.265 9        54.250    23236353.164    99113591.109 8        49.500    23236353.114    93563234.431 8        52.500    23236355.714    91184510.142 8        51.250  
E33  25634097.274   134708102.741 7        45.750    25634097.624   101905823.268 8        53.000    25634096.644   109341009.186 8        47.750    25634096.644   103217914.923 8        51.000    25634099.404   100593731.653 8        50.250  
C19  22709929.060   118256639.136 8        47.500    22709925.050    90281137.113 9        55.000    22709920.960    96093208.452 8        51.000    22709924.620    91443547.516 8        52.750    22709926.900    89118730.188 8        53.000    22709925.850   119341559.068 7        47.250  
C20  22040906.268   114772861.328 8        51.000    22040899.118    87621489.197 9        57.250    22040894.978    93262340.999 9        53.750    22040898.458    88749662.231 9        55.500    22040900.768    86493343.638 9        55.500    22040903.208   115825812.005 8        50.250  
C23  26025503.263   135521639.166 6        39.250    26025495.793   103461778.038 8        47.500    26025492.923   110122394.690 6        41.000    26025494.663   104793903.288 7        44.250    26025497.813   102129667.261 7        45.500    26025499.493   136764959.148 6        37.750  
C29  22450099.022   116903571.702 8        49.000    22450094.282    89248134.735 9        55.500    22450094.502    94993727.001 8        51.500    22450093.502    90397251.595 9        53.500    22450096.302    88099032.352 8        53.250    22450096.492   117976076.791 8        47.500  
C30  25160482.632   131017227.207 6        39.500    25160484.852   100022973.704 7        47.250    25160484.352   106462230.710 7        42.750    25160484.382   101310818.013 7        44.750    25160487.012    98735137.867 7        44.500    25160480.762   132219202.606 6        38.250  
C32  25149965.095   130962515.315 7        42.750    25149966.465    99981249.043 8        49.250    25149964.245   106417797.909 7        45.500    25149966.155   101268558.967 7        47.000    25149968.485    98693953.595 7        46.250    25149963.205   132163982.237 7        42.500  
C35  23695155.447   123386948.502 7        46.250    23695152.627    94197747.614 8        53.250    23695151.457   100261971.269 8        48.250    23695152.197    95410593.295 8        51.000    23695154.107    92984913.411 8        50.500    23695152.557   124518904.708 7        44.500  
C37  25151534.073   130970682.260 6        40.750    25151537.233    99987472.933 8        48.500    25151534.983   106424430.351 7        43.250    25151536.643   101274865.256 7        46.000    25151538.373    98700099.087 7        45.500    25151532.253   132172217.141 6        40.000  
C46                                                                                                  26273423.924   111171460.216 5        31.500                                                    26273425.144   103102571.03214        24.750                                                  
C57  29000054.092   151010892.693 6        39.250                                                    29000173.592   122709240.134 6        39.500                                                                                                                                                  
> 2021 06 24 00 01 30.0000000  0 36      -0.000477864972
G05  22701505.007   119297240.377 7        44.500    22701505.037   119297239.379 7        42.500    22701503.247    92958906.156 7        41.500    22701503.397    92958897.158 7        42.500                                                                                                  
G10  24221775.980   127286376.661 6        37.750    24221776.030   127286301.660 4        25.250    24221777.900    99184147.644 7        42.500    24221778.410    99184135.653 4        25.250    24221777.150    95051464.368 8        48.500                                                  
G13  21835412.502   114745911.603 7        47.000    21835412.302   114745901.600 6        36.000                                                    21835410.752    89412401.201 6        36.000                                                                                                  
G15  20021521.294   105213887.122 8        50.250    20021521.424   105213875.116 7        45.750    20021519.144    81984869.528 8        51.750    20021518.944    81984856.533 7        45.750                                                                                                  
G18  20169502.303   105991480.535 8        49.000    20169502.383   105991479.538 7        44.500    20169500.583    82590776.206 9        54.500    20169500.463    82590772.207 7        44.500    20169504.663    79149491.138 9        58.250    20169502.053   105991477.536 8        50.000  
G20  23003336.820   120883360.318 7        43.000    23003335.800   120883372.315 4        29.250                                                    23003334.990    94194841.002 4        29.250                                                                                                  
G23  21490240.287   112932022.707 7        46.500    21490240.087   112932017.709 6        38.750    21490238.487    87998989.593 8        49.000    21490238.627    87998987.596 6        38.750    21490242.817    84332367.848 9        54.500    21490239.907   112932023.702 8        47.750  
G24  22094595.920   116108015.956 7        43.000    22094596.650   116107932.957 6        36.250    22094597.670    90473736.914 7        47.250    22094597.770    90473725.913 6        36.250    22094597.880    86704003.445 8        51.750                                                  
G27  24793308.121   130289715.417 5        33.500    24793307.931   130289717.410 3        20.000    24793308.711   101524453.718 6        39.500    24793309.391   101524457.714 3        20.000    24793309.331    97294272.831 7        45.500                                                  
G29  23419193.656   123068676.789 7        42.000    23419194.166   123068675.779 5        30.250    23419194.176    95897662.704 6        41.250    23419194.816    95897666.712 5        30.250                                                                                                  
R01  23119717.322   123588067.952 6        39.250    23119716.832   123588147.957 6        38.250    23119720.392    96124056.563 6        35.750    23119721.182    96124105.551 5        34.250                                                  
R06  23356152.764   124632908.809 6        36.750    23356152.094   124632916.807 6        35.750                                                                                                                                                  
R07  20066466.836   107417442.154 8        51.250    20066467.136   107417450.159 8        51.250    20066467.396    83546924.495 8        51.000    20066466.946    83546916.493 8        49.750                                                  
R08  20099166.461   107630204.376 8        49.250    20099167.621   107630223.388 8        49.500    20099166.111    83712433.097 8        50.250    20099166.501    83712420.096 8        49.500                                                  
R09  23119072.631   123454560.297 7        44.500    23119073.151   123454586.296 7        44.000    23119073.931    96020237.835 7        42.500    23119074.411    96020229.835 7        41.500    23119061.471    92696499.760 7        45.000  
R16  23065720.335   123212961.517 6        40.750    23065722.105   123212965.518 6        41.000    23065721.535    95832314.750 6        36.500    23065722.695    95832304.770 5        34.250                                                  
R21  23446245.100   125465557.337 7        41.500    23446244.340   125465575.335 6        41.000    23446245.970    97584316.787 6        41.000    23446247.870    97584311.782 6        39.250    23446233.210    94008238.145 7        42.750  
R22  19942245.892   106453087.185 7        42.500    19942247.242   106453082.187 7        42.000    19942249.782    82796843.889 6        39.250    19942247.952    82796836.883 6        38.250                                                  
R23  20561850.873   109992126.046 8        49.500    20561850.763   109992074.041 8        49.500                                                                                                                                                  
R24  23898919.829   127798284.676 6        38.500    23898919.059   127798284.660 6        38.500    23898918.379    99398664.504 6        37.250    23898919.269    99398663.503 6        37.250                                                  
E04  24891888.572   130807828.122 8        48.000    24891888.072    98955297.469 9        55.750    24891886.932   106175203.509 8        49.750    24891887.262   100229397.824 9        54.000    24891889.902    97681195.156 9        53.500  
E11  23711734.954   124606022.165 7        43.250    23711732.034    94263652.185 8        50.000    23711730.414   101141256.854 7        45.000    23711730.914    95477347.772 8        47.500    23711733.834    93049958.645 7        47.250  
E12  21669324.044   113873098.566 8        47.750    21669321.214    86144273.156 9        56.500    21669319.244    92429470.969 8        52.000    21669320.634    87253423.110 9        55.000    21669322.734    85035117.250 9        53.750  
E18  22959763.606   120654363.495 7        45.750    22959765.076    91274240.828 8        53.250    22959762.306    97933734.337 7        46.750    22959763.786    92449444.675 8        50.500    22959766.996    90099035.022 8        51.000  
E19  23241253.875   122133685.235 8        47.500    23241252.465    92393342.718 9        54.250    23241251.625    99134485.373 8        49.750    23241251.625    93582958.612 8        52.500    23241254.175    91203732.865 8        51.500  
E33  25649505.299   134789073.269 7        45.750    25649505.839   101967076.899 8        53.000    25649505.069   109406731.992 8        48.250    25649504.869   103279957.232 8        51.250    25649507.399   100654196.609 8        49.750  
C19  22700950.962   118209886.732 8        47.750    22700946.712    90245444.760 9        55.000    22700942.922    96055218.304 8        51.500    22700946.282    91407395.605 8        52.750    22700948.542    89083497.395 8        53.000    22700947.372   119294377.728 7        46.750  
C20  22044966.759   114794005.208 8        51.000    22044959.579    87637631.137 9        57.250    22044955.409    93279522.127 9        53.500    22044958.949    88766012.012 9        55.250    22044961.189    86509277.742 9        55.500    22044963.509   115847149.863 8        50.000  
C23  26026518.815   135526940.617 6        38.000    26026513.925   103465825.338 8        47.750    26026509.655   110126702.522 6        40.000    26026513.185   104798002.702 7        45.000    26026516.075   102133662.453 7        45.500    26026517.315   136770309.236 6        37.250  
C29  22460074.883   116955519.239 8        49.000    22460070.253    89287793.220 9        55.250    22460070.403    95035938.612 8        51.750    22460069.513    90437420.706 8        53.250    22460072.183    88138180.213 8        53.250    22460072.553   118028500.901 8        47.500  
C30  25180184.238   131119811.405 6        40.000    25180185.088   100101289.855 7        47.000    25180184.528   106545588.688 7        42.250    25180184.288   101390142.526 7        43.750    25180187.358    98812445.666 7        45.000    25180181.298   132322727.964 6        38.250  
C32  25163771.448   131034414.217 7        41.750    25163773.938   100036139.040 8        49.250    25163771.698   106476221.606 7        45.500    25163773.638   101324155.703 7        46.750    25163775.968    98748136.850 7        46.250    25163770.238   132236540.739 7        42.000  
C35  23688042.638   123349910.918 7        46.000    23688039.878    94169471.904 8        53.250    23688038.928   100231875.219 8        48.750    23688039.608    95381953.518 8        51.000    23688041.568    92957001.769 8        51.000    23688039.858   124481527.336 7        45.000  
C37  25140302.917   130912196.158 6        41.000    25140305.557    99942822.729 8        48.750    25140303.617   106376905.669 7        44.000    25140304.967   101229640.153 7        46.250    25140307.467    98656023.782 7        46.000    25140299.997   132113194.451 6        39.500  
C46                                                                                                  26256930.321   111101669.779 5        31.500                                                    26256932.351   103037847.207 4        25.000                                                  
C57  28986075.960   150938110.068 6        38.500                                                    28986196.870   122650098.325 6        40.250                                                                                                                                                  
> 2021 06 24 00 02  0.0000000  0 36      -0.000477864817
G05  22715486.476   119370713.838 7        44.250    22715486.666   119370712.839 7        42.250    22715484.986    93016158.188 7        41.500    22715485.026    93016149.180 7        42.250                                                                                                  
G10  24206927.282   127208344.982 6        38.000    24206927.422   127208269.981 4        26.250    24206928.532    99123343.794 7        42.250    24206928.972    99123331.795 4        26.250    24206927.882    94993194.028 8        48.500                                                  
G13  21851441.969   114830146.694 7        46.750    21851441.809   114830136.698 6        35.750                                                    21851440.129    89478038.900 6        35.750                                                                                                  
G15  20028731.414   105251777.442 8        49.750    20028731.774   105251765.444 7        45.750    20028729.404    82014394.449 8        51.500    20028729.154    82014381.454 7        45.750                                                                                                  
G18  20163651.431   105960734.934 8        49.000    20163651.591   105960733.942 7        44.750    20163649.881    82566818.592 9        54.500    20163649.811    82566814.595 7        44.750    20163654.021    79126531.755 9        58.250    20163651.221   105960731.942 8        49.750  
G20  23017972.497   120960272.396 7        42.500    23017971.797   120960284.399 4        28.000                                                    23017970.817    94254772.448 4        28.000                                                                                                  
G23  21479629.680   112876265.355 7        46.500    21479629.930   112876260.360 6        39.250    21479628.180    87955542.312 8        49.000    21479628.260    87955540.315 6        39.250    21479632.450    84290730.874 9        54.250    21479629.620   112876266.353 8        47.750  
G24  22077293.137   116017092.549 7        42.750    22077294.497   116017009.552 6        36.250    22077295.607    90402887.549 7        47.250    22077295.397    90402876.542 6        36.250    22077296.047    86636106.155 8        52.250                                                  
G27  24782276.555   130231740.861 5        35.250    24782275.875   130231742.854 3        18.500    24782276.355   101479278.746 6        38.500    24782276.705   101479282.743 3        18.500    24782276.815    97250980.221 7        44.250                                                  
G29  23438649.865   123170918.439 6        40.750    23438649.715   123170917.428 5        29.500    23438650.445    95977331.425 6        41.250    23438650.475    95977335.434 5        29.500                                                                                                  
R01  23103430.709   123501014.401 6        39.500    23103432.129   123501094.400 6        38.500    23103433.599    96056348.297 6        35.750    23103434.959    96056397.311 5        33.500                                                  
R06  23374400.893   124730276.367 6        36.000    23374397.703   124730284.355 5        35.250                                                                                                                                                  
R07  20076584.145   107471600.894 8        50.750    20076584.275   107471608.905 8        51.000    20076584.525    83589047.944 8        51.000    20076584.615    83589039.942 8        49.750                                                  
R08  20093128.944   107597867.688 8        49.750    20093129.204   107597886.700 8        49.500    20093127.544    83687282.341 8        50.750    20093127.684    83687269.340 8        49.500                                                  
R09  23103436.359   123371067.175 7        43.000    23103436.579   123371093.177 7        42.750    23103437.739    95955298.845 7        42.750    23103438.579    95955290.839 7        41.500    23103425.259    92633808.630 7        44.750  
R16  23064867.637   123208397.313 7        41.500    23064867.477   123208401.321 6        40.750    23064866.767    95828764.866 6        36.250    23064867.817    95828754.865 5        35.000                                                  
R21  23472006.034   125603408.798 6        41.000    23472004.584   125603426.796 6        40.500    23472008.974    97691534.509 6        40.750    23472008.674    97691529.498 6        39.500    23471993.674    94111526.735 7        42.250  
R22  19957507.308   106534546.146 7        42.000    19957506.848   106534541.152 7        42.000    19957507.398    82860200.837 6        38.750    19957508.008    82860193.830 6        38.000                                                  
R23  20547721.658   109916541.182 8        50.000    20547721.068   109916489.182 8        50.000                                                                                                                                                  
R24  23875419.129   127672623.137 6        37.750    23875419.389   127672623.139 6        38.750    23875420.499    99300927.834 6        36.250    23875420.339    99300926.847 6        36.500                                                  
E04  24881915.386   130755419.524 8        48.000    24881915.046    98915650.737 9        55.750    24881913.966   106132664.095 8        49.500    24881914.196   100189240.622 9        53.750    24881916.886    97642058.899 8        53.250  
E11  23698926.414   124538712.493 7        43.250    23698923.374    94212732.899 8        50.000    23698921.774   101086622.407 7        44.750    23698922.484    95425772.871 8        47.750    23698925.164    92999694.975 7        47.250  
E12  21671680.236   113885478.825 8        47.500    21671677.096    86153638.745 9        56.500    21671675.156    92439519.882 8        51.750    21671676.426    87262909.282 9        55.000    21671678.656    85044362.253 9        53.500  
E18  22994017.912   120834370.821 7        46.000    22994019.472    91410415.144 8        53.000    22994016.672    98079844.152 7        46.750    22994018.102    92587372.318 8        50.500    22994021.292    90233456.009 8        50.750  
E19  23246196.613   122159658.848 8        47.500    23246195.073    92412991.583 9        54.500    23246194.193    99155567.843 8        49.750    23246194.243    93602860.467 8        52.500    23246196.853    91223128.741 8        51.500  
E33  25664953.986   134870254.052 7        46.000    25664954.046   102028489.592 8        53.000    25664952.966   109472625.441 7        47.250    25664953.096   103342160.652 8        51.000    25664955.906   100714818.578 8        50.250  
C19  22692006.475   118163310.687 8        47.500    22692002.215    90209887.062 9        55.000    22691998.355    96017371.472 8        51.500    22692001.725    91371380.077 8        52.750    22692004.085    89048397.525 8        52.750    22692002.825   119247374.383 7        47.000  
C20  22049062.896   114815333.915 8        51.000    22049055.546    87653914.183 9        57.000    22049051.306    93296853.436 8        53.000    22049054.926    88782504.712 9        55.750    22049057.156    86525351.133 9        55.500    22049059.426   115868674.249 8        50.250  
C23  26027625.896   135532697.889 6        39.000    26027619.506   103470220.655 8        48.250    26027614.776   110131380.802 6        39.750    26027619.406   104802454.614 7        45.750    26027621.636   102138001.173 7        45.500    26027623.556   136776119.360 6        38.750  
C29  22470133.287   117007895.449 8        49.000    22470128.627    89327778.965 9        55.250    22470128.757    95078498.552 8        51.500    22470127.857    90477921.291 8        53.000    22470130.537    88177651.115 8        53.000    22470130.757   118081357.623 8        47.500  
C30  25199891.517   131222429.147 6        41.250    25199892.197   100179631.626 8        47.750    25199891.407   106628973.947 7        42.250    25199891.447   101469493.020 7        44.750    25199894.227    98889778.705 7        45.250    25199888.007   132426287.162 6        38.750  
C32  25177581.316   131106326.291 7        42.250    25177583.886   100091039.094 8        49.000    25177581.816   106534656.003 7        45.250    25177583.396   101379762.627 7        46.250    25177585.906    98802330.036 7        46.250    25177580.326   132309112.560 7        41.750  
C35  23681019.775   123313341.638 7        46.250    23681017.115    94141553.690 8        53.250    23681016.035   100202159.695 8        48.250    23681016.755    95353675.846 8        50.750    23681018.795    92929443.019 8        50.750    23681017.225   124444622.542 7        44.750  
C37  25129124.700   130853986.821 6        41.250    25129126.990    99898383.822 8        48.500    25129124.290   106329605.861 7        43.250    25129126.390   101184629.073 7        45.750    25129128.450    98612157.051 7        45.750    25129121.910   132054451.068 6        40.250  
C46  26240411.417   136640699.35114        29.250                                                    26240414.737   111031787.954 5        31.250                                                    26240416.807   102973037.43814        26.000                                                  
C57  28972162.062   150865657.023 6        37.750                                                    28972282.682   122591224.280 6        40.500                                                                                                                                                  
> 2021 06 24 00 02 30.0000000  0 36      -0.000477866953
G05  22729491.511   119444309.106 7        44.500    22729491.511   119444308.105 7        42.250    22729490.281    93073505.114 7        42.250    22729489.711    93073496.109 7        42.250                                                                                                  
G10  24192081.872   127130334.034 6        37.250    24192082.352   127130259.066 4        26.250    24192084.312    99062556.119 7        42.750    24192083.632    99062544.115 4        26.250    24192083.122    94934939.190 8        49.000                                                  
G13  21867528.087   114914680.503 7        47.000    21867527.847   114914670.503 6        35.500                                                    21867526.537    89543909.356 6        35.500                                                                                                  
G15  20036029.321   105290127.649 8        50.500    20036029.521   105290115.641 7        45.500    20036027.421    82044277.718 8        51.500    20036027.021    82044264.726 7        45.500                                                                                                  
G18  20157894.441   105930480.994 8        49.000    20157894.631   105930479.999 7        44.750    20157892.601    82543244.087 9        54.500    20157892.661    82543240.093 7        44.750    20157896.941    79103939.524 9        58.250    20157894.251   105930478.001 8        50.000  
G20  23032634.964   121037328.891 7        42.000    23032635.014   121037340.891 4        28.000                                                    23032633.914    94314816.441 4        28.000                                                                                                  
G23  21469049.639   112820667.357 7        46.750    21469049.719   112820662.366 6        39.250    21469048.369    87912219.205 8        49.250    21469048.349    87912217.206 6        39.250    21469052.479    84249212.898 9        54.750    21469049.559   112820668.359 8        47.500  
G24  22060050.406   115926480.570 7        42.750    22060051.026   115926397.566 6        36.000    22060052.636    90332280.859 7        47.250    22060052.686    90332269.860 6        36.000    22060052.976    86568441.435 8        52.250                                                  
G27  24771333.544   130174240.377 5        32.250    24771332.744   130174242.359 2        16.750    24771335.274   101434473.218 6        37.000    24771334.604   101434477.225 2        16.750    24771334.844    97208041.607 7        44.000                                                  
G29  23458130.439   123273287.813 6        41.000    23458130.499   123273286.805 5        30.000    23458130.649    96057099.686 6        41.250    23458130.769    96057103.694 5        30.000                                                                                                  
R01  23087181.711   123414161.788 6        38.000    23087182.931   123414241.794 6        38.000    23087187.831    95988796.347 5        34.750    23087188.431    95988845.344 5        33.750                                                  
R06  23392633.157   124827585.889 5        34.000    23392633.407   124827593.895 5        34.000                                                                                                                                                  
R07  20086747.152   107525999.669 8        51.250    20086746.452   107526007.668 8        51.750    20086746.412    83631358.082 8        51.000    20086746.402    83631350.076 8        49.750                                                  
R08  20087159.046   107565899.474 8        50.000    20087159.096   107565918.484 8        49.500    20087158.306    83662418.185 8        51.000    20087158.206    83662405.184 8        49.500                                                  
R09  23087866.899   123287939.897 6        40.000    23087867.369   123287965.906 6        40.500    23087872.919    95890644.392 7        43.750    23087871.779    95890636.393 7        42.500    23087858.439    92571392.225 7        45.000  
R16  23064147.185   123204556.044 6        40.500    23064147.405   123204560.051 6        40.250    23064146.515    95825777.180 6        36.250    23064150.125    95825767.201 5        35.250                                                  
R21  23497782.392   125741350.610 6        40.250    23497781.662   125741368.609 6        39.500    23497788.532    97798822.489 6        41.000    23497786.702    97798817.480 6        40.000    23497771.252    94214883.021 7        41.750  
R22  19972889.298   106616655.780 7        42.250    19972888.798   106616650.781 7        41.750    19972890.568    82924063.850 6        38.750    19972890.338    82924056.849 6        38.000                                                  
R23  20533712.929   109841606.473 8        50.250    20533712.959   109841554.477 8        50.250                                                                                                                                                  
R24  23851954.190   127547141.660 6        40.750    23851953.380   127547141.651 6        39.750    23851953.830    99203331.181 5        35.250    23851953.540    99203330.189 5        34.750                                                  
E04  24871985.715   130703237.554 8        48.000    24871985.115    98876175.459 9        55.250    24871983.765   106090308.629 8        49.750    24871984.215   100149257.074 9        53.750    24871986.865    97603091.889 8        53.000  
E11  23686159.482   124471625.368 7        43.250    23686157.112    94161981.975 8        50.000    23686155.432   101032168.600 7        44.750    23686155.922    95374368.500 8        47.750    23686158.732    92949597.495 7        47.250  
E12  21674111.864   113898258.868 8        47.500    21674109.064    86163306.760 9        56.250    21674107.094    92449893.287 8        52.250    21674108.374    87272701.779 9        54.750    21674110.544    85053905.786 9        53.750  
E18  23028314.711   121014601.167 7        46.000    23028316.191    91546758.186 8        53.250    23028313.131    98226134.969 7        46.500    23028314.921    92725470.845 8        51.250    23028318.071    90368043.562 8        50.500  
E19  23251182.605   122185863.172 8        47.500    23251181.575    92432814.974 9        54.250    23251180.645    99176837.580 8        49.500    23251180.815    93622939.096 8        52.500    23251183.365    91242696.895 8        51.500  
E33  25680441.632   134951643.826 7        45.750    25680442.132   102090060.366 8        53.000    25680441.092   109538688.514 7        47.250    25680441.132   103404524.183 8        51.000    25680443.812   100775596.587 8        50.250  
C19  22683095.664   118116910.790 7        47.250    22683091.584    90174463.832 9        55.000    22683087.864    95979667.773 8        51.500    22683091.094    91335500.756 8        52.500    22683093.384    89013430.388 8        53.000    22683092.034   119200548.800 7        46.750  
C20  22053193.840   114836846.724 8        50.500    22053186.850    87670337.781 9        57.000    22053182.610    93314334.350 8        53.250    22053186.260    88799139.769 9        55.250    22053188.530    86541563.269 9        55.250    22053190.920   115890384.422 8        50.250  
C23  26028820.695   135538911.252 6        40.250    26028812.725   103474964.169 8        48.500    26028808.595   110136429.719 6        40.250    26028812.475   104807259.201 7        45.500    26028815.255   102142683.616 7        46.250    26028816.015   136782389.723 6        38.500  
C29  22480273.733   117060698.642 8        49.000    22480268.973    89368090.687 9        55.000    22480269.223    95121405.457 8        51.750    22480268.153    90518752.049 8        53.000    22480270.853    88217443.798 8        53.000    22480271.213   118134645.250 8        47.500  
C30  25219604.327   131325078.194 7        41.500    25219604.897   100257997.316 8        47.750    25219604.057   106712384.676 7        42.250    25219604.307   101548867.710 7        45.000    25219606.627    98967135.395 7        45.500    25219600.827   132529877.972 6        39.250  
C32  25191394.569   131178251.125 7        42.250    25191396.479   100145948.911 8        49.000    25191394.009   106593100.802 7        45.250    25191395.709   101435379.449 7        46.000    25191398.819    98856532.850 7        47.000    25191392.899   132381697.261 7        41.500  
C35  23674087.845   123277241.795 7        46.500    23674084.485    94113993.874 9        53.500    23674083.465   100172825.629 8        48.500    23674084.005    95325761.176 8        50.750    23674086.385    92902238.050 8        51.000    23674084.375   124408191.517 7        44.250  
C37  25117999.032   130796056.558 6        40.750    25118001.902    99854157.978 8        48.750    25117999.522   106282532.845 7        43.500    25118001.472   101139833.790 7        46.250    25118004.062    98568500.651 7        46.250    25117996.962   131995989.363 6        40.000  
C46                                                                                                  26223876.930   110961815.252 4        27.500                                                    26223879.530   102908144.316 4        26.000                                                  
C57  28958311.662   150793535.562 6        38.250                                                    28958432.732   122532619.724 6        41.250                                                                                                                                                  
> 2021 06 24 00 03  0.0000000  0 36      -0.000477864619
G05  22743519.273   119518026.251 7        44.250    22743519.413   119518025.246 7        42.250    22743517.573    93130947.026 7        41.500    22743517.653    93130938.012 7        42.250                                                                                                  
G10  24177241.217   127052344.149 6        39.250    24177242.017   127052269.141 4        28.000    24177243.097    99001784.839 7        42.750    24177243.717    99001772.842 4        28.000    24177241.627    94876700.069 8        48.500                                                  
G13  21883670.915   114999511.072 7        46.500    21883670.655   114999501.069 6        35.750                                                    21883669.185    89610011.060 6        35.750                                                                                                  
G15  20043414.175   105328935.466 8        50.000    20043414.515   105328923.466 7        45.750    20043412.105    82074517.579 8        51.500    20043411.915    82074504.581 7        45.750                                                                                                  
G18  20152231.023   105900720.459 8        49.000    20152231.393   105900719.467 7        44.750    20152229.603    82520054.057 9        54.500    20152229.453    82520050.062 7        44.750    20152233.623    79081715.742 9        58.250    20152230.983   105900717.463 8        50.000  
G20  23047326.404   121114529.603 7        42.750    23047325.934   121114541.607 4        28.500                                                    23047325.024    94374972.772 4        28.500                                                                                                  
G23  21458500.537   112765229.257 7        46.750    21458500.287   112765224.258 6        39.250    21458498.837    87869020.695 8        49.250    21458498.897    87869018.693 6        39.250    21458503.037    84207814.321 9        54.500    21458500.227   112765230.263 8        47.750  
G24  22042867.772   115836183.371 7        43.500    22042868.042   115836100.368 6        35.750    22042869.302    90261919.466 7        47.000    22042869.432    90261908.452 6        35.750    22042869.692    86501011.775 8        52.000                                                  
G27  24760482.773   130117215.798 5        33.250    24760481.013   130117217.810 2        16.750    24760484.093   101390038.570 6        37.500    24760484.703   101390042.567 2        16.750    24760483.893    97165458.355 7        44.500                                                  
G29  23477634.628   123375782.006 6        40.500    23477634.378   123375780.998 5        29.750    23477634.558    96136965.206 6        41.000    23477634.108    96136969.220 5        29.750                                                                                                  
R01  23070973.663   123327510.212 6        38.750    23070974.053   123327590.216 6        38.250    23070977.153    95921400.725 6        35.750    23070977.813    95921449.729 5        33.750                                                  
R06  23410859.296   124924836.416 6        35.500    23410859.586   124924844.424 5        34.500                                                                                                                                                  
R07  20096953.335   107580636.400 8        50.250    20096953.315   107580644.409 8        50.750    20096952.635    83673853.294 8        50.750    20096953.155    83673845.289 8        49.750                                                  
R08  20081257.075   107534298.650 8        49.250    20081257.785   107534317.663 8        49.000    20081256.515    83637839.779 8        50.500    20081256.655    83637826.778 8        49.500                                                  
R09  23072370.366   123205182.697 7        41.500    23072370.876   123205208.682 6        41.250    23072373.436    95826277.741 7        44.000    23072374.406    95826269.737 7        43.000    23072360.486    92509253.637 7        45.000  
R16  23063564.280   123201438.366 6        41.000    23063565.010   123201442.373 6        40.500    23063563.170    95823352.296 6        35.500    23063564.970    95823342.315 5        34.000                                                  
R21  23523576.632   125879379.162 6        40.500    23523575.872   125879397.162 6        39.750    23523580.442    97906177.906 6        41.250    23523581.062    97906172.901 6        40.000    23523565.332    94318304.273 6        41.000  
R22  19988393.041   106699412.824 7        42.000    19988392.511   106699407.823 7        42.000    19988395.211    82988430.412 6        39.000    19988393.221    82988423.411 6        37.750                                                  
R23  20519826.674   109767325.695 8        49.250    20519826.804   109767273.689 8        49.500                                                                                                                                                  
R24  23828523.894   127421844.102 6        41.000    23828522.074   127421844.093 6        40.250    23828521.274    99105877.546 5        32.250    23828521.154    99105876.513 5        33.250                                                  
E04  24862098.795   130651282.291 8        48.500    24862098.345    98836871.667 9        55.750    24862097.145   106048137.171 8        49.750    24862097.465   100109447.233 9        54.000    24862100.045    97564294.155 8        53.250  
E11  23673436.430   124404762.522 7        43.000    23673433.460    94111400.702 8        50.500    23673432.050   100977896.841 7        44.750    23673432.480    95323135.958 8        48.000    23673435.230    92899667.489 8        47.750  
E12  21676619.793   113911438.979 8        47.500    21676617.163    86173277.419 9        56.500    21676615.113    92460591.421 8        52.000    21676616.513    87282800.816 9        55.000    21676618.643    85063748.067 9        53.750  
E18  23062652.579   121195048.413 7        46.500    23062654.189    91683265.295 8        53.250    23062651.369    98372601.858 7        46.500    23062653.169    92863735.567 8        51.000    23062655.819    90502793.066 8        50.250  
E19  23256213.226   122212297.171 8        47.500    23256211.836    92452812.116 9        54.250    23256210.916    99198293.740 8        49.500    23256211.006    93643193.709 8        52.500    23256213.616    91262436.561 8        51.250  
E33  25695969.555   135033241.458 7        46.000    25695969.815   102151788.388 8        53.250    25695968.775   109604920.312 8        47.750    25695968.975   103467046.995 8        51.500    25695971.395   100836529.818 8        50.000  
C19  22674219.322   118070686.881 8        48.250    22674214.802    90139174.962 9        55.000    22674210.822    95942107.088 8        51.500    22674214.322    91299757.521 8        52.750    22674216.632    88978595.881 8        53.000    22674215.542   119153900.830 7        47.000  
C20  22057360.649   114858542.959 8        51.000    22057353.389    87686901.413 9        57.000    22057349.189    93331964.312 8        53.250    22057352.799    88815916.670 9        55.250    22057355.019    86557913.635 9        55.500    22057357.369   115912279.704 8        50.000  
C23  26030101.147   135545580.906 6        39.250    26030093.527   103480056.045 8        48.250    26030090.417   110141849.401 7        41.500    26030093.147   104812416.633 7        45.000    26030095.687   102147709.931 7        45.750    26030097.597   136789120.575 6        38.250  
C29  22490495.508   117113927.167 8        49.000    22490490.998    89408727.118 9        55.250    22490491.108    95164657.969 8        51.500    22490490.088    90559911.700 8        53.000    22490492.918    88257557.012 8        53.000    22490493.028   118188362.123 8        47.500  
C30  25239321.649   131427756.466 6        41.000    25239323.259   100336385.277 8        47.500    25239322.289   106795819.103 7        41.750    25239322.659   101628264.963 7        45.000    25239324.909    99044514.063 7        44.750    25239318.759   132633498.201 6        39.500  
C32  25205208.733   131250188.394 7        42.000    25205211.533   100200868.201 8        49.250    25205208.493   106651555.682 7        44.500    25205210.743   101491005.862 7        46.250    25205213.243    98910745.010 7        46.750    25205207.223   132454294.513 7        41.750  
C35  23667245.219   123241612.568 7        46.250    23667242.259    94086793.329 8        53.250    23667241.259   100143873.970 8        48.250    23667241.829    95298210.410 8        50.750    23667243.909    92875387.727 8        51.000    23667241.939   124372235.399 7        44.250  
C37  25106927.653   130738407.679 6        41.000    25106930.953    99810146.950 8        49.000    25106928.943   106235688.454 7        43.500    25106930.503   101095256.084 7        46.000    25106932.823    98525056.295 7        46.250    25106925.683   131937811.586 6        40.000  
C46                                                                                                  26207320.698   110891756.59415        29.500                                                    26207321.738   102843169.63114        24.750                                                  
C57  28944525.994   150721747.762 6        38.000                                                    28944646.324   122474286.260 7        41.750                                                                                                                                                  
> 2021 06 24 00 03 30.0000000  0 36      -0.000477865114
G05  22757570.492   119591865.085 7        45.000    22757570.502   119591864.084 7        43.000    22757569.422    93188483.743 7        42.250    22757568.872    93188474.740 7        43.000                                                                                                  
G10  24162404.652   126974375.382 6        39.500    24162404.702   126974300.378 4        28.500    24162405.872    98941030.008 7        43.250    24162407.042    98941018.005 4        28.500    24162404.762    94818476.684 8        48.750                                                  
G13  21899869.647   115084635.644 7        46.750    21899869.477   115084625.648 5        35.250                                                    21899868.317    89676341.873 5        35.250                                                                                                  
G15  20050885.831   105368199.516 8        50.000    20050886.191   105368187.513 7        45.750    20050883.881    82105112.931 8        51.250    20050883.541    82105099.939 7        45.750                                                                                                  
G18  20146662.036   105871455.003 8        48.750    20146662.206   105871454.006 7        44.750    20146660.366    82497249.801 9        54.750    20146660.576    82497245.805 7        44.750    20146664.556    79059861.661 9        58.250    20146661.966   105871452.008 8        49.750  
G20  23062044.547   121191874.325 7        42.250    23062044.047   121191886.320 4        28.750                                                    23062042.947    94435241.319 4        28.750                                                                                                  
G23  21447980.905   112709951.538 7        46.750    21447981.155   112709946.537 6        39.250    21447979.755    87825947.153 8        49.250    21447979.785    87825945.154 6        39.250    21447984.125    84166535.507 9        54.500    21447981.015   112709952.534 8        47.500  
G24  22025745.073   115746204.135 7        42.500    22025745.613   115746121.140 6        35.500    22025747.013    90191805.836 7        46.500    22025746.983    90191794.834 6        35.500    22025747.243    86433819.552 8        52.250                                                  
G27  24749720.175   130060668.955 5        30.500    24749720.865   130060670.982 2        13.250    24749724.635   101345976.103 6        37.250    24749722.925   101345980.107 2        13.250    24749722.795    97123231.848 7        43.000                                                  
G29  23497161.907   123478397.303 6        40.250    23497161.177   123478396.310 4        29.250    23497162.907    96216925.095 6        41.250    23497162.187    96216929.103 4        29.250                                                                                                  
R01  23054802.284   123241060.263 6        38.750    23054800.834   123241140.268 6        38.000    23054804.694    95854161.951 5        35.250    23054806.224    95854210.954 5        33.250                                                  
R06  23429073.648   125022026.644 5        35.250    23429072.648   125022034.647 5        34.500                                                                                                                                                  
R07  20107204.180   107635509.130 7        46.000    20107204.050   107635517.139 7        46.250    20107203.690    83716532.057 8        51.000    20107204.000    83716524.056 8        49.500                                                  
R08  20075425.012   107503065.047 7        45.250    20075425.122   107503084.059 7        45.500    20075424.172    83613546.991 8        50.750    20075424.012    83613533.989 8        49.750                                                  
R09  23056943.477   123122799.601 6        41.000    23056944.167   123122825.591 6        40.750    23056946.097    95762202.088 7        44.000    23056945.687    95762194.082 7        42.250    23056932.967    92447395.969 7        45.500  
R16  23063115.838   123199045.173 6        41.000    23063116.948   123199049.186 6        39.750    23063110.468    95821490.959 5        35.250    23063117.718    95821480.967 5        34.000                                                  
R21  23549387.163   126017491.015 6        39.250    23549385.713   126017509.012 6        38.500    23549390.963    98013598.121 6        40.750    23549390.603    98013593.109 6        39.500    23549374.763    94421787.951 6        40.750  
R22  20004016.669   106782814.222 6        40.750    20004016.149   106782809.222 6        41.000    20004018.999    83053298.138 6        39.250    20004017.439    83053291.136 6        38.000                                                  
R23  20506063.678   109693702.284 7        45.250    20506063.308   109693650.281 7        45.750    20506073.538    85317255.49813        18.000                                                                                                  
R24  23805128.291   127296734.218 7        42.000    23805126.591   127296734.202 6        40.750    23805123.711    99008569.829 5        32.750    23805125.331    99008568.813 5        33.000                                                  
E04  24852255.137   130599553.793 8        48.250    24852254.697    98797739.435 9        55.750    24852253.497   106006149.777 8        50.000    24852253.757   100069811.140 9        54.000    24852256.527    97525665.773 8        53.250  
E11  23660755.225   124338125.717 7        43.250    23660752.885    94060990.434 8        50.500    23660751.245   100923808.549 7        44.750    23660751.985    95272076.633 8        48.000    23660754.385    92849906.281 8        47.500  
E12  21679204.217   113925019.426 8        47.500    21679201.437    86183550.934 9        56.250    21679199.437    92471614.513 8        52.000    21679200.787    87293206.612 9        55.000    21679202.987    85073889.306 9        53.750  
E18  23097030.581   121375706.348 7        45.750    23097032.241    91819931.785 8        52.750    23097029.581    98519239.747 7        46.500    23097031.291    93002161.707 8        51.000    23097033.911    90637699.899 8        50.000  
E19  23261286.861   122238959.689 8        47.500    23261285.551    92472982.129 9        54.500    23261284.561    99219935.395 8        49.250    23261284.801    93663623.430 8        52.500    23261287.291    91282346.874 8        51.500  
E33  25711536.467   135115045.704 7        46.250    25711536.497   102213672.724 8        53.000    25711535.357   109671319.833 7        47.000    25711535.727   103529728.121 8        51.250    25711538.357   100897617.369 8        49.750  
C19  22665375.720   118024638.753 8        47.500    22665371.720    90104020.276 9        55.000    22665367.730    95904689.212 8        51.250    22665371.140    91264150.198 8        52.750    22665373.580    88943893.832 8        53.250    22665372.070   119107430.236 7        46.750  
C20  22061562.061   114880421.924 8        51.000    22061555.021    87703604.555 9        57.000    22061550.771    93349742.766 8        53.250    22061554.411    88832834.875 9        55.250    22061556.601    86574401.715 9        55.250    22061559.101   115934359.395 8        50.000  
C23  26031469.368   135552707.138 6        38.250    26031461.988   103485496.441 8        48.000    26031459.028   110147640.016 6        41.250    26031461.478   104817927.074 7        45.250    26031463.488   102153080.287 7        45.250    26031466.068   136796312.167 6        37.000  
C29  22500799.123   117167579.325 8        49.000    22500794.333    89449686.957 9        55.000    22500794.463    95208254.720 8        51.250    22500793.623    90601398.920 8        53.250    22500796.163    88297989.474 8        53.000    22500796.463   118242506.495 7        47.250  
C30  25259045.636   131530461.696 6        41.250    25259046.776   100414793.842 8        47.500    25259045.746   106879275.459 7        41.750    25259046.196   101707683.091 7        44.750    25259048.526    99121913.071 7        44.750    25259042.616   132737145.709 6        39.500  
C32  25219026.715   131322137.736 7        42.500    25219028.655   100255796.714 8        49.250    25219026.075   106710020.364 7        45.000    25219028.125   101546641.610 7        46.500    25219030.535    98964966.285 7        46.500    25219024.285   132526903.922 7        41.500  
C35  23660493.423   123206455.029 7        46.000    23660490.633    94059952.896 8        53.250    23660489.543   100115305.610 8        48.500    23660490.133    95271024.388 8        50.750    23660492.383    92848892.882 8        51.000    23660490.363   124336755.316 7        44.500  
C37  25095911.866   130681042.531 6        41.000    25095914.556    99766352.506 8        48.750    25095912.156   106189074.600 7        43.250    25095914.246   101050897.768 7        46.250    25095916.196    98481825.728 7        46.000    25095909.546   131879920.158 6        39.500  
C46                                                                                                  26190742.950   110821610.666 4        28.500                                                    26190743.440   102778114.913 4        25.250                                                  
C57  28930803.505   150650295.630 6        37.500                                                    28930924.805   122416225.592 7        42.250                                                                                                                                                  
> 2021 06 24 00 04  0.0000000  0 36      -0.000477865786
G05  22771644.317   119665825.413 7        44.500    22771644.707   119665824.414 7        43.250    22771643.707    93246115.129 7        42.750    22771643.247    93246106.130 7        43.250                                                                                                  
G10  24147571.084   126896427.885 6        39.000    24147571.494   126896352.880 4        28.750    24147573.804    98880291.742 7        43.750    24147573.154    98880279.731 4        28.750    24147571.654    94760269.176 8        48.500                                                  
G13  21916123.940   115170051.267 7        47.000    21916123.580   115170041.278 6        35.750                                                    21916121.790    89742899.470 6        35.750                                                                                                  
G15  20058444.230   105407917.850 8        50.250    20058444.280   105407905.846 7        45.500    20058441.930    82136062.274 8        51.500    20058441.750    82136049.284 7        45.500                                                                                                  
G18  20141187.661   105842686.353 8        48.750    20141187.801   105842685.361 7        44.750    20141185.941    82474832.664 9        54.750    20141185.921    82474828.668 7        44.750    20141190.161    79038378.571 9        58.250    20141187.531   105842683.358 8        50.000  
G20  23076790.238   121269362.747 7        42.500    23076789.278   121269374.742 4        28.000                                                    23076789.318    94495621.845 4        28.000                                                                                                  
G23  21437492.980   112654834.641 7        46.500    21437493.080   112654829.646 6        39.250    21437491.390    87782998.928 8        49.250    21437491.530    87782996.929 6        39.250    21437495.680    84125376.800 9        54.500    21437492.740   112654835.640 8        47.750  
G24  22008683.935   115656546.054 7        42.750    22008684.395   115656463.052 5        35.250    22008685.465    90121942.445 7        46.500    22008685.555    90121931.436 5        35.250    22008686.535    86366867.150 8        53.250                                                  
G27  24739052.260   130004601.675 5        32.250    24739050.650   130004593.66112        16.250    24739053.700   101302287.244 6        36.500    24739052.840   101302282.27212        16.250    24739053.720    97081363.388 7        43.000                                                  
G29  23516711.201   123581130.587 6        40.000    23516711.211   123581129.592 4        29.250    23516711.751    96296976.908 7        42.000    23516711.471    96296980.912 4        29.250                                                                                                  
R01  23038666.101   123154812.173 6        37.750    23038666.701   123154892.154 6        37.500    23038672.301    95787080.128 5        35.000    23038670.701    95787129.135 5        33.500                                                  
R06  23447274.476   125119155.967 5        33.250    23447273.616   125119163.938 5        32.250                                                                                                                                                  
R07  20117498.714   107690615.894 7        47.000    20117498.254   107690623.900 7        47.250    20117498.254    83759392.850 8        50.500    20117498.444    83759384.848 8        49.500                                                  
R08  20069661.073   107472197.336 7        46.250    20069660.933   107472216.347 7        46.500    20069659.793    83589538.779 8        50.750    20069659.743    83589525.778 8        49.750                                                  
R09  23041587.921   123040795.206 7        41.500    23041588.251   123040821.211 6        41.000    23041589.011    95698421.029 7        44.500    23041589.131    95698413.022 7        42.750    23041575.901    92385822.693 7        45.250  
R16  23062802.147   123197377.167 6        40.500    23062804.367   123197381.172 6        40.500    23062802.527    95820193.645 6        36.500    23062806.047    95820183.654 5        34.250                                                  
R21  23575211.537   126155682.278 6        40.000    23575211.397   126155700.287 6        39.500    23575215.957    98121080.114 6        41.000    23575215.217    98121075.099 6        39.750    23575199.667    94525331.121 6        41.000  
R22  20019760.216   106866856.784 6        41.000    20019760.496   106866851.788 6        41.250    20019762.536    83118664.541 6        38.750    20019761.226    83118657.540 6        38.250                                                  
R23  20492424.323   109620739.969 7        46.750    20492424.253   109620687.967 7        47.000                                                                                                                                                  
R24  23781765.649   127171815.967 7        42.500    23781766.089   127171815.983 7        42.250    23781764.639    98911411.166 5        34.500    23781767.119    98911410.151 5        34.000                                                  
E04  24842454.911   130548052.124 8        48.250    24842454.241    98758778.793 9        55.750    24842453.331   105964346.507 8        50.000    24842453.351   100030348.858 9        54.000    24842456.091    97487206.771 8        53.250  
E11  23648118.346   124271716.566 7        43.500    23648115.656    94010752.380 8        50.000    23648114.106   100869905.044 7        45.250    23648114.536    95221191.742 8        47.750    23648117.026    92800315.067 7        47.250  
E12  21681864.483   113939000.430 8        47.500    21681861.933    86194127.465 9        56.250    21681859.983    92482962.722 8        52.250    21681861.293    87303919.317 9        54.750    21681863.463    85084329.658 9        53.750  
E18  23131447.838   121556568.866 7        45.250    23131449.258    91956753.052 8        52.250    23131446.808    98666043.708 7        46.250    23131448.038    93140744.621 8        50.500    23131450.998    90772759.518 8        49.250  
E19  23266403.807   122265849.606 8        47.500    23266402.527    92493324.177 9        54.500    23266401.747    99241761.627 8        49.250    23266401.727    93684227.390 8        52.750    23266404.317    91302427.008 8        51.500  
E33  25727142.166   135197055.302 7        46.000    25727142.466   102275712.405 8        52.750    25727141.536   109737886.035 8        47.500    25727141.316   103592566.603 8        50.500    25727144.396   100958858.252 8        50.250  
C19  22656566.635   117978766.151 8        47.750    22656562.345    90068999.602 9        55.000    22656558.285    95867413.983 8        51.250    22656561.905    91228678.614 8        52.750    22656564.245    88909324.069 8        53.250    22656563.075   119061136.786 7        47.000  
C20  22065798.544   114902482.934 8        51.000    22065791.614    87720446.668 9        57.000    22065787.414    93367669.135 8        53.250    22065791.014    88849893.838 9        55.250    22065793.254    86591026.977 9        55.250    22065795.624   115956622.797 8        50.250  
C23  26032923.535   135560290.013 6        39.000    26032918.265   103491285.491 8        48.000    26032914.495   110153801.738 6        41.000    26032917.325   104823790.664 7        45.000    26032919.825   102158794.791 7        45.750    26032922.035   136803964.598 6        37.500  
C29  22511183.507   117221653.391 8        49.250    22511178.697    89490968.896 9        55.250    22511178.957    95252194.304 8        51.750    22511177.867    90643212.386 8        53.250    22511180.567    88338739.880 8        53.000    22511180.847   118297076.648 8        47.500  
C30  25278774.316   131633191.751 6        41.000    25278775.016   100493221.352 8        47.500    25278774.006   106962751.986 7        41.750    25278774.656   101787120.393 7        45.500    25278776.706    99199330.785 7        44.500    25278770.886   132840818.244 6        39.000  
C32  25232845.507   131394098.768 7        41.750    25232847.957   100310734.133 8        49.250    25232845.397   106768494.555 7        44.750    25232847.447   101602286.380 7        46.750    25232850.057    99019196.360 7        46.750    25232844.087   132599525.151 7        41.500  
C35  23653832.410   123171770.312 7        46.250    23653829.820    94033473.427 8        53.000    23653828.750   100087121.435 8        48.500    23653829.360    95244203.989 8        50.750    23653831.490    92822754.349 8        50.750    23653829.750   124301752.392 7        44.500  
C37  25084949.503   130623963.327 6        40.500    25084952.993    99722776.379 8        48.750    25084950.863   106142693.130 7        43.500    25084952.503   101006760.561 7        45.750    25084954.853    98438810.677 7        46.250    25084947.833   131822317.299 6        40.500  
C46                                                                                                                                                                                                  26174146.289   102712981.940 4        29.000                                                  
C57  28917148.031   150579181.185 6        38.500                                                    28917267.681   122358439.327 7        42.250                                                                                                                                                  
> 2021 06 24 00 04 30.0000000  0 36      -0.000477864544
G05  22785741.375   119739906.896 7        44.750    22785741.805   119739905.891 7        43.000    22785741.475    93303840.923 7        43.500    22785740.725    93303831.929 7        43.000                                                                                                  
G10  24132742.822   126818501.832 6        39.000    24132742.902   126818426.841 4        28.000    24132743.782    98819570.216 7        42.750    24132744.462    98819558.201 4        28.000    24132742.632    94702077.740 8        48.750                                                  
G13  21932432.572   115255755.548 7        46.500    21932432.892   115255745.557 5        35.250                                                    21932430.932    89809681.977 5        35.250                                                                                                  
G15  20066088.347   105448088.330 8        50.000    20066088.497   105448076.326 7        45.500    20066086.127    82167363.952 8        51.250    20066085.907    82167350.953 7        45.500                                                                                                  
G18  20135807.982   105814416.128 8        49.000    20135808.192   105814415.134 7        44.750    20135806.372    82452803.912 9        55.250    20135806.432    82452799.914 7        44.750    20135810.452    79017267.686 9        58.500    20135807.742   105814413.134 8        50.000  
G20  23091563.773   121346994.647 7        42.750    23091562.433   121347006.638 4        27.500                                                    23091562.103    94556114.171 4        27.500                                                                                                  
G23  21427035.433   112599879.092 7        46.750    21427035.363   112599874.094 6        39.500    21427033.703    87740176.423 8        49.250    21427033.913    87740174.426 6        39.500    21427038.003    84084338.568 9        54.750    21427035.123   112599880.103 8        48.000  
G24  21991684.074   115567212.409 7        42.500    21991684.414   115567129.410 5        35.000    21991685.604    90052331.854 7        46.000    21991685.744    90052320.851 5        35.000    21991686.204    86300157.025 8        52.750                                                  
G27  24728474.537   129949015.504 5        34.750    24728474.017   129949007.500 3        17.500    24728476.277   101258973.414 6        35.500    24728477.497   101258968.411 3        17.500    24728475.927    97039854.280 7        43.000                                                  
G29  23536282.709   123683978.873 6        39.750    23536282.259   123683977.861 5        30.000    23536282.959    96377118.341 6        41.250    23536282.829    96377122.351 5        30.000                                                                                                  
R01  23022569.857   123068766.256 6        39.500    23022569.897   123068846.258 6        39.000    23022571.557    95720155.626 6        35.500    23022574.647    95720204.632 5        33.750                                                  
R06  23465463.512   125216223.864 4        28.250    23465462.762   125216231.836 5        29.500                                                                                                                                                  
R07  20127836.432   107745954.910 8        48.000    20127836.142   107745962.919 8        48.500    20127836.042    83802434.285 8        50.750    20127836.232    83802426.285 8        49.750                                                  
R08  20063963.783   107441694.891 7        47.000    20063964.503   107441713.900 7        47.250    20063963.743    83565814.675 8        50.500    20063963.663    83565801.672 8        49.750                                                  
R09  23026301.742   122959173.133 7        41.500    23026302.282   122959199.150 6        41.000    23026304.312    95634937.330 7        44.750    23026304.092    95634929.329 7        42.250    23026290.482    92324536.498 7        45.500  
R16  23062629.244   123196435.212 7        41.750    23062628.714   123196439.216 6        41.000    23062630.134    95819461.030 6        36.750    23062629.654    95819451.041 5        35.000                                                  
R21  23601051.515   126293949.360 6        40.250    23601049.455   126293967.363 6        40.000    23601053.145    98228621.061 6        41.000    23601053.345    98228616.048 6        39.250    23601038.115    94628931.093 6        41.250  
R22  20035623.178   106951536.908 7        41.750    20035623.778   106951531.907 7        41.500    20035625.448    83184526.833 6        39.000    20035624.668    83184519.826 6        38.000                                                  
R23  20478909.278   109548442.396 8        47.500    20478908.808   109548390.396 8        48.000                                                                                                                                                  
R24  23758442.038   127047093.119 7        43.250    23758441.598   127047093.127 7        43.500    23758442.488    98814404.497 6        36.250    23758443.648    98814403.479 5        35.250                                                  
E04  24832697.326   130496777.320 8        48.500    24832696.946    98719989.777 9        56.000    24832696.026   105922727.381 8        49.500    24832696.086    99991060.414 9        54.250    24832698.706    97448917.189 9        53.500  
E11  23635525.062   124205536.841 7        43.500    23635522.032    93960687.893 8        50.500    23635520.762   100816187.765 7        45.500    23635521.092    95170482.639 8        47.750    23635523.802    92750895.191 8        48.000  
E12  21684601.639   113953382.201 8        47.750    21684598.689    86205007.173 9        56.250    21684596.839    92494636.229 8        51.000    21684597.979    87314939.109 9        54.750    21684600.249    85095069.284 9        53.750  
E18  23165902.866   121737629.847 7        45.250    23165903.956    92093724.438 8        52.000    23165901.316    98813008.746 7        46.250    23165902.866    93279479.592 8        50.250    23165905.446    90907967.325 8        48.500  
E19  23271563.804   122292965.800 8        47.500    23271562.574    92513837.393 9        54.500    23271561.624    99263771.518 8        49.250    23271561.774    93705004.724 8        52.750    23271564.284    91322676.104 8        51.500  
E33  25742786.847   135279269.002 7        46.000    25742787.487   102337906.486 8        53.250    25742786.477   109804617.897 7        47.250    25742786.477   103655561.479 8        51.000    25742789.397   101020251.536 8        50.250  
C19  22647790.759   117933068.904 8        47.500    22647786.619    90034112.794 9        54.750    22647782.689    95830281.237 8        51.500    22647786.149    91193342.616 8        52.750    22647788.489    88874886.450 8        52.750    22647787.369   119015020.301 7        47.000  
C20  22070070.575   114924725.254 8        51.000    22070063.015    87737427.204 9        57.250    22070058.795    93385742.844 8        53.250    22070062.405    88867093.006 9        55.500    22070064.735    86607788.878 9        55.500    22070066.855   115979069.182 8        50.250  
C23  26034469.606   135568329.674 6        40.000    26034461.986   103497423.275 8        48.000    26034458.076   110160334.671 6        41.000    26034461.096   104830007.470 7        44.500    26034464.126   102164853.565 7        46.000    26034466.136   136812078.057 6        39.250  
C29  22521648.516   117276147.631 8        49.000    22521643.786    89532571.612 9        55.250    22521644.116    95296475.311 8        51.750    22521642.976    90685350.758 8        53.250    22521645.666    88379806.938 8        52.750    22521645.866   118352070.843 7        47.000  
C30  25298506.766   131735944.390 6        40.750    25298507.676   100571666.114 7        47.250    25298506.566   107046246.862 7        41.750    25298507.016   101866575.186 7        45.250    25298509.286    99276765.520 7        44.000    25298504.136   132944513.591 6        39.000  
C32  25246667.145   131466071.141 6        41.250    25246669.455   100365680.233 8        49.250    25246666.805   106826977.967 7        44.250    25246668.955   101657939.939 7        46.500    25246671.925    99073435.003 7        47.000    25246665.635   132672157.836 7        41.500  
C35  23647262.358   123137559.494 7        46.250    23647259.998    94007355.742 8        53.250    23647258.888   100059322.356 8        48.750    23647259.378    95217750.019 8        50.750    23647261.608    92796972.941 8        50.750    23647260.068   124267227.720 7        44.750  
C37  25074044.494   130567172.377 6        41.250    25074046.924    99679420.309 8        48.750    25074044.694   106096545.871 7        43.500    25074046.284   100962846.268 7        46.000    25074048.414    98396012.832 7        46.250    25074042.104   131765005.310 6        40.500  
C46                                                                                                  26157524.913   110681068.85514        25.750                                                    26157529.823   102647772.095 5        31.500                                                  
C57  28903556.006   150508406.465 6        38.500                                                    28903676.646   122300929.089 7        43.000                                                                                                                                                  
> 2021 06 24 00 05  0.0000000  0 36      -0.000477864321
G05  22799862.478   119814109.062 7        45.500    22799862.378   119814108.058 7        43.750    22799861.078    93361660.761 7        43.000    22799860.698    93361651.764 7        43.750                                                                                                  
G10  24117917.749   126740597.347 6        39.500    24117918.129   126740522.340 4        28.000    24117919.339    98758865.468 7        42.500    24117920.749    98758853.482 4        28.000    24117918.079    94643902.367 8        48.500                                                  
G13  21948795.971   115341745.844 7        46.500    21948796.141   115341735.854 5        35.250                                                    21948794.441    89876687.376 5        35.250                                                                                                  
G15  20073817.994   105488709.136 8        50.000    20073818.324   105488697.130 7        45.500    20073816.104    82199016.516 8        51.250    20073815.814    82199003.521 7        45.500                                                                                                  
G18  20130523.435   105786646.020 8        49.000    20130523.805   105786645.027 7        45.000    20130522.015    82431164.867 9        55.000    20130521.875    82431160.870 7        45.000    20130525.965    78996530.266 9        58.500    20130523.415   105786643.028 8        50.000  
G20  23106363.882   121424769.924 7        43.250    23106362.612   121424781.929 4        27.250                                                    23106361.662    94616718.229 4        27.250                                                                                                  
G23  21416608.251   112545085.423 7        46.250    21416608.471   112545080.429 6        39.000    21416606.481    87697480.069 8        49.000    21416606.701    87697478.065 6        39.000    21416611.141    84043421.226 9        54.750    21416608.091   112545086.422 8        47.750  
G24  21974747.048   115478206.351 7        43.250    21974747.378   115478123.341 6        35.500    21974748.728    89982976.553 7        46.250    21974748.808    89982965.553 6        35.500    21974749.298    86233691.513 9        53.500                                                  
G27  24717988.532   129893912.390 5        34.750    24717987.932   129893904.375 3        19.250    24717989.892   101216035.947 6        36.750    24717989.982   101216030.983 3        19.250    24717990.062    96998705.867 7        43.250                                                  
G29  23555875.506   123786939.223 6        40.250    23555875.246   123786938.223 5        29.500    23555875.336    96457347.093 6        40.250    23555875.616    96457351.109 5        29.500                                                                                                  
R01  23006509.160   122982922.658 6        38.500    23006509.500   122983002.666 6        38.250    23006515.110    95653388.413 5        35.000    23006514.770    95653437.419 5        34.250                                                  
R06  23483642.712   125313228.585 5        30.500    23483642.862   125313236.610 5        30.250                                                                                                                                                  
R07  20138217.032   107801524.122 8        51.250    20138217.132   107801532.129 8        51.500    20138217.672    83845654.764 8        50.500    20138217.252    83845646.757 8        49.750                                                  
R08  20058335.549   107411556.660 8        49.750    20058336.219   107411575.674 8        49.500    20058335.609    83542373.839 8        50.500    20058335.519    83542360.839 8        49.750                                                  
R09  23011088.748   122877938.244 6        38.750    23011087.608   122877964.256 6        39.750    23011091.178    95571754.729 7        44.000    23011091.338    95571746.736 7        42.250    23011077.928    92263540.994 7        45.500  
R16  23062586.966   123196219.880 6        41.250    23062587.256   123196223.880 6        40.750    23062589.066    95819293.543 6        36.750    23062588.936    95819283.560 5        34.250                                                  
R21  23626901.532   126432288.573 6        39.500    23626901.392   126432306.576 6        39.000    23626904.902    98336218.126 6        39.750    23626905.502    98336213.110 6        38.500    23626890.362    94732585.121 6        40.000  
R22  20051606.117   107036851.896 7        42.250    20051605.667   107036846.894 7        42.000    20051608.287    83250882.900 6        39.000    20051607.467    83250875.898 6        38.000                                                  
R23  20465519.187   109476813.095 8        50.250    20465518.507   109476761.091 8        50.250                                                                                                                                                  
R24  23735155.982   126922569.619 7        44.250    23735155.272   126922569.620 7        43.750    23735158.552    98717552.859 6        36.750    23735156.832    98717551.861 6        35.750                                                  
E04  24822983.390   130445729.508 8        48.500    24822982.830    98681372.481 9        56.000    24822981.830   105881292.493 8        49.750    24822981.910    99951945.895 9        54.250    24822984.580    97410797.109 9        53.500  
E11  23622975.103   124139588.213 7        43.750    23622972.413    93910798.212 8        50.250    23622970.883   100762658.064 7        45.250    23622971.173    95119950.605 8        47.750    23622973.993    92701647.871 8        47.750  
E12  21687414.408   113968164.985 8        47.750    21687411.778    86216190.244 9        56.750    21687409.828    92506635.233 8        51.750    21687411.038    87326266.168 9        55.000    21687413.328    85106108.366 9        53.750  
E18  23200393.908   121918883.292 7        44.500    23200395.288    92230841.428 8        51.500    23200392.768    98960129.999 7        46.750    23200394.268    93418362.035 8        49.750    23200396.808    91043318.862 8        48.250  
E19  23276766.757   122320307.161 7        47.250    23276765.457    92534520.954 9        54.250    23276764.507    99285964.181 8        49.250    23276764.607    93725954.599 8        52.500    23276767.177    91343093.355 8        51.500  
E33  25758470.468   135361685.580 7        46.500    25758470.688   102400254.041 8        52.750    25758469.968   109871514.430 8        47.500    25758469.928   103718711.784 8        51.000    25758472.168   101081796.341 8        49.250  
C19  22639049.132   117887546.818 8        48.000    22639044.562    89999359.713 9        55.000    22639040.752    95793290.827 8        51.500    22639044.222    91158142.070 8        53.000    22639046.322    88840580.835 8        53.000    22639045.492   118969080.575 7        47.250  
C20  22074376.081   114947148.282 8        50.750    22074369.121    87754545.695 9        57.250    22074364.881    93403963.378 8        53.250    22074368.531    88884431.906 9        55.500    22074370.811    86624686.961 9        55.500    22074373.121   116001697.921 8        50.000  
C23  26036102.717   135576826.373 6        40.250    26036093.737   103503909.963 8        48.250    26036089.637   110167238.959 6        40.500    26036093.217   104836577.673 7        45.750    26036095.897   102171256.731 7        45.750    26036096.927   136820652.674 6        38.250  
C29  22532193.814   117331060.349 8        49.000    22532189.244    89574493.812 9        55.250    22532189.424    95341096.371 8        51.500    22532188.414    90727812.734 8        53.250    22532191.124    88421189.367 8        53.000    22532191.354   118407487.355 7        47.250  
C30  25318242.704   131838717.507 6        41.000    25318244.224   100650126.490 7        47.250    25318243.054   107129758.378 7        42.000    25318244.004   101946045.784 7        45.500    25318245.624    99354215.668 7        43.500    25318240.424   133048229.566 6        39.250  
C32  25260491.391   131538054.532 7        42.000    25260493.331   100420634.737 8        49.250    25260490.381   106885470.335 7        44.250    25260492.481   101713602.023 7        45.750    25260495.591    99127681.924 7        47.250    25260489.571   132744801.619 7        41.500  
C35  23640783.909   123103823.663 7        46.250    23640781.319    93981600.679 8        53.000    23640780.309   100031909.242 8        48.750    23640780.779    95191663.347 8        50.500    23640782.889    92771549.494 8        50.750    23640781.169   124233182.364 7        44.250  
C37  25063194.467   130510671.942 6        41.250    25063196.437    99636286.043 8        48.750    25063194.297   106050634.701 7        43.500    25063195.937   100919156.610 7        46.250    25063198.507    98353433.956 7        46.250    25063191.677   131707986.518 6        39.750  
C46                                                                                                  26140889.994   110610674.734 4        26.500                                                    26140893.094   102582487.172 5        30.000                                                  
C57  28890029.415   150437973.483 6        38.500                                                    28890150.635   122243696.554 7        43.250                                                                                                                                                  
> 2021 06 24 00 05 30.0000000  0 36      -0.000477865746
G05  22814005.517   119888431.567 7        44.500    22814005.437   119888430.560 7        43.750    22814003.627    93419574.380 7        42.500    22814003.837    93419565.378 7        43.750                                                                                                  
G10  24103096.856   126662714.649 6        39.000    24103097.356   126662639.654 4        27.750    24103098.406    98698177.708 7        42.250    24103099.666    98698165.704 4        27.750    24103097.346    94585743.284 8        48.750                                                  
G13  21965213.793   115428019.427 7        46.000    21965213.183   115428009.428 5        35.000                                                    21965211.613    89943913.510 5        35.000                                                                                                  
G15  20081633.475   105529778.252 8        50.000    20081633.575   105529766.251 7        45.250    20081631.245    82231018.422 8        51.250    20081631.075    82231005.426 7        45.250                                                                                                  
G18  20125334.583   105759377.673 8        49.250    20125334.743   105759376.676 7        44.750    20125332.693    82409916.796 9        54.750    20125332.773    82409912.801 7        44.750    20125337.023    78976167.531 9        58.250    20125334.343   105759374.682 8        50.250  
G20  23121190.389   121502688.397 7        42.250    23121190.139   121502700.408 4        27.250                                                    23121189.579    94677433.877 4        27.250                                                                                                  
G23  21406212.520   112490454.141 7        46.750    21406212.440   112490449.137 6        39.500    21406210.720    87654910.236 8        49.500    21406210.730    87654908.236 6        39.500    21406215.090    84002625.143 9        54.750    21406212.130   112490455.141 8        48.000  
G24  21957872.388   115389531.124 7        43.250    21957873.008   115389448.125 6        35.500    21957873.588    89913879.025 7        46.000    21957873.978    89913868.027 6        35.500    21957874.698    86167473.066 9        53.500                                                  
G27  24707595.036   129839294.002 5        35.250    24707595.486   129839285.990 3        18.750    24707597.206   101173476.170 6        39.000    24707597.766   101173471.162 3        18.750    24707597.226    96957919.434 7        44.250                                                  
G29  23575488.655   123890007.951 6        40.250    23575489.185   123890006.953 5        29.750    23575489.175    96537660.308 6        41.250    23575489.175    96537664.315 5        29.750                                                                                                  
R01  22990489.446   122897281.682 6        39.000    22990489.846   122897361.687 6        38.000    22990493.366    95586778.821 6        35.750    22990495.046    95586827.829 5        34.750                                                  
R06  23501811.080   125410169.961 5        34.000    23501810.780   125410178.969 5        32.500                                                                                                                                                  
R07  20148640.997   107857321.513 8        50.500    20148640.617   107857329.518 8        50.750    20148640.767    83889052.702 8        51.000    20148640.617    83889044.696 8        49.500                                                  
R08  20052775.487   107381781.702 8        49.000    20052776.207   107381800.719 8        49.000    20052775.147    83519215.551 8        50.500    20052775.137    83519202.549 8        49.500                                                  
R09  22995948.521   122797094.467 6        40.000    22995949.221   122797120.472 6        40.750    22995952.031    95508876.344 7        43.000    22995951.581    95508868.345 7        41.750    22995938.641    92202839.152 7        45.750  
R16  23062685.150   123196732.222 6        41.000    23062683.830   123196736.240 6        40.750    23062679.620    95819692.060 5        35.000    23062684.390    95819682.055 5        34.250                                                  
R21  23652764.243   126570696.409 6        38.000    23652766.013   126570714.412 6        38.250    23652770.333    98443868.539 6        38.500    23652770.533    98443863.527 6        37.500    23652755.793    94836290.584 6        39.750  
R22  20067708.050   107122798.503 7        42.250    20067706.810   107122793.508 7        42.000    20067709.260    83317730.256 6        39.000    20067707.670    83317723.247 6        38.250                                                  
R23  20452254.363   109405855.682 8        49.750    20452253.853   109405803.682 8        49.750                                                                                                                                                  
R24  23711906.930   126798249.700 7        44.000    23711906.540   126798249.696 7        43.250    23711907.460    98620859.619 6        38.000    23711908.350    98620858.614 6        36.750                                                  
E04  24813312.255   130394908.640 8        48.000    24813311.905    98642926.859 9        55.750    24813310.735   105840041.819 8        49.750    24813310.845    99913005.267 9        53.750    24813313.615    97372846.500 9        53.500  
E11  23610470.382   124073872.472 7        43.500    23610467.032    93861084.730 8        50.500    23610465.272   100709317.406 7        45.250    23610465.752    95069597.027 8        47.500    23610468.872    92652574.476 8        48.000  
E12  21690304.012   113983349.004 8        47.750    21690301.212    86227676.845 9        56.500    21690299.262    92518959.918 8        52.000    21690300.462    87337900.667 9        54.750    21690302.702    85117447.069 9        53.750  
E18  23234920.914   122100323.183 7        44.250    23234922.164    92368099.464 8        51.250    23234919.824    99107402.582 7        47.000    23234921.184    93557387.336 8        49.250    23234923.874    91178809.631 8        48.250  
E19  23282012.285   122347872.583 8        47.500    23282011.005    92555374.010 9        54.500    23282010.025    99308338.708 8        49.000    23282010.245    93747076.152 8        52.750    23282012.705    91363677.915 8        51.250  
E33  25774192.565   135444303.751 7        46.000    25774192.285   102462754.114 8        52.500    25774191.695   109938574.597 8        47.750    25774191.405   103782016.574 8        50.500    25774194.375   101143491.697 8        50.000  
C19  22630339.916   117842199.699 8        47.750    22630336.146    89964740.199 9        55.000    22630332.196    95756442.593 8        51.500    22630335.816    91123076.813 8        53.250    22630337.806    88806407.067 8        52.750    22630336.726   118923317.423 7        47.000  
C20  22078716.974   114969751.291 8        51.000    22078709.814    87771801.590 9        57.000    22078705.594    93422330.173 8        53.000    22078709.184    88901909.984 9        55.250    22078711.474    86641720.675 9        55.250    22078713.664   116024508.297 8        50.000  
C23  26037820.640   135585780.194 6        40.250    26037813.220   103510745.630 8        48.250    26037809.640   110174514.677 6        41.250    26037812.920   104843501.359 7        45.500    26037815.380   102178004.387 7        45.750    26037817.290   136829688.650 6        38.750  
C29  22542819.708   117386389.780 8        49.000    22542814.698    89616734.139 9        55.000    22542814.908    95386056.040 8        51.500    22542813.938    90770596.928 8        53.000    22542816.628    88462885.824 8        52.750    22542817.108   118463324.397 8        47.500  
C30  25337983.566   131941508.847 6        41.000    25337984.146   100728600.801 7        46.750    25337982.956   107213284.703 7        41.750    25337983.986   102025530.485 7        45.000    25337985.846    99431679.590 7        43.500    25337980.096   133151963.960 6        38.750  
C32  25274316.356   131610048.570 7        41.500    25274319.196   100475597.393 8        49.250    25274316.276   106943971.361 7        44.000    25274318.596   101769272.360 7        46.250    25274321.336    99181936.899 7        47.000    25274315.196   132817456.171 7        41.500  
C35  23634397.104   123070563.864 7        46.000    23634394.114    93956209.045 8        53.000    23634393.074   100004882.944 8        48.250    23634393.634    95165944.780 8        50.500    23634395.674    92746484.790 8        50.500    23634394.214   124199617.455 7        44.750  
C37  25052399.932   130454464.304 6        40.750    25052402.422    99593375.286 8        49.000    25052400.192   106004961.433 7        44.000    25052402.112   100875693.359 7        46.500    25052404.402    98311075.695 7        46.250    25052397.212   131651263.216 6        40.000  
C46                                                                                                  26124235.165   110540201.19714        27.000                                                    26124235.445   102517128.64114        23.500                                                  
C57  28876570.180   150367884.232 6        38.250                                                    28876691.090   122186743.339 7        43.500                                                                                                                                                  
> 2021 06 24 00 06  0.0000000  0 36      -0.000477863863
G05  22828171.557   119962874.520 7        44.750    22828171.467   119962873.519 7        44.000    22828170.257    93477581.837 7        43.000    22828170.007    93477572.839 7        44.000                                                                                                  
G10  24088281.034   126584853.892 6        40.000    24088281.524   126584778.902 4        28.500    24088282.154    98637507.022 7        41.500    24088282.274    98637495.018 4        28.500    24088280.914    94527600.558 8        48.750                                                  
G13  21981684.357   115514573.938 7        46.250    21981683.697   115514563.942 5        35.000                                                    21981682.807    90011358.548 5        35.000                                                                                                  
G15  20089533.510   105571293.748 8        49.750    20089533.810   105571281.745 7        45.750    20089531.200    82263368.149 8        51.000    20089531.230    82263355.153 7        45.750                                                                                                  
G18  20120241.301   105732612.709 8        49.000    20120241.401   105732611.715 7        45.000    20120239.801    82389060.981 9        54.750    20120239.661    82389056.986 7        45.000    20120243.781    78956180.710 9        58.250    20120241.141   105732609.713 8        50.000  
G20  23136045.616   121580749.701 7        43.000    23136044.936   121580761.709 4        27.250                                                    23136044.516    94738260.811 4        27.250                                                                                                  
G23  21395847.219   112435985.746 7        46.250    21395847.299   112435980.750 6        39.750    21395845.719    87612467.333 8        49.250    21395845.869    87612465.338 6        39.750    21395850.119    83961950.704 9        54.750    21395846.869   112435986.756 8        48.000  
G24  21941061.944   115301189.874 7        44.250    21941061.934   115301106.871 6        36.000    21941062.874    89845041.741 7        46.500    21941063.524    89845030.744 6        36.000    21941063.954    86101504.011 9        53.750                                                  
G27  24697294.100   129785162.142 5        34.000    24697292.830   129785154.169 2        17.000    24697295.510   101131295.494 6        38.250    24697296.270   101131290.497 2        17.000    24697295.400    96917496.280 7        43.000                                                  
G29  23595122.663   123993182.136 6        40.500    23595122.383   123993181.132 5        30.000    23595122.693    96618055.706 6        40.750    23595122.373    96618059.708 5        30.000                                                                                                  
R01  22974509.111   122811843.590 6        38.000    22974507.171   122811923.595 6        37.500    22974512.791    95520327.050 6        36.250    22974511.331    95520376.047 5        34.500                                                  
R06  23519965.192   125507047.611 5        33.000    23519964.402   125507056.630 5        32.500                                                                                                                                                  
R07  20159106.448   107913345.251 8        49.000    20159105.898   107913353.254 8        49.000    20159106.258    83932626.686 8        50.500    20159106.068    83932618.683 8        49.750                                                  
R08  20047283.108   107352369.252 8        47.750    20047283.648   107352388.260 8        48.000    20047283.008    83496339.201 8        50.750    20047282.648    83496326.201 8        49.500                                                  
R09  22980883.043   122716645.887 7        41.750    22980885.243   122716671.871 7        41.750    22980885.603    95446305.310 7        42.500    22980886.333    95446297.311 7        41.500    22980873.093    92142434.024 7        46.000  
R16  23062916.454   123197972.453 7        41.750    23062916.714   123197976.459 6        41.250    23062916.224    95820656.703 5        35.250    23062916.074    95820646.693 5        34.000                                                  
R21  23678644.983   126709169.271 6        38.000    23678642.843   126709187.267 6        38.000    23678646.373    98551569.540 6        36.750    23678647.023    98551564.539 6        36.250    23678632.593    94940044.741 6        37.750  
R22  20083925.417   107209373.418 7        42.500    20083925.527   107209368.419 7        41.750    20083927.257    83385066.257 6        38.750    20083925.927    83385059.256 6        37.750                                                  
R23  20439115.802   109335573.610 8        48.500    20439115.252   109335521.606 8        48.500                                                                                                                                                  
R24  23688697.720   126674136.882 7        43.000    23688696.720   126674136.888 7        42.750    23688699.100    98524327.479 6        38.000    23688698.720    98524326.465 6        37.750                                                  
E04  24803684.678   130344314.787 8        48.000    24803684.178    98604652.980 9        56.000    24803683.098   105798975.413 8        50.250    24803683.188    99874238.587 9        54.000    24803686.018    97335065.420 9        53.500  
E11  23598009.261   124008391.198 7        43.500    23598006.211    93811548.597 8        50.500    23598004.601   100656167.032 7        45.250    23598005.141    95019423.087 8        47.750    23598008.101    92603676.160 8        48.000  
E12  21693269.728   113998934.431 8        47.750    21693267.038    86239467.107 9        56.250    21693265.008    92531610.416 8        52.000    21693266.278    87349842.737 9        54.750    21693268.608    85129085.524 9        54.000  
E18  23269482.287   122281943.522 7        44.250    23269483.447    92505494.015 8        51.500    23269481.397    99254821.637 7        47.250    23269482.427    93696550.925 8        49.250    23269485.477    91314435.143 8        48.750  
E19  23287300.385   122375660.926 8        47.500    23287298.915    92576395.708 9        54.250    23287297.815    99330894.174 8        49.000    23287298.205    93768368.512 8        52.750    23287300.765    91384428.949 8        51.250  
E33  25789951.937   135527122.276 7        45.750    25789952.287   102525405.752 8        52.500    25789951.707   110005797.397 8        47.750    25789950.897   103845474.896 8        49.750    25789954.337   101205336.651 8        50.500  
C19  22621665.497   117797027.323 8        48.000    22621661.277    89930254.102 9        55.250    22621657.327    95719736.351 8        51.750    22621660.767    91088146.685 8        53.000    22621662.887    88772364.995 8        53.000    22621662.037   118877730.628 7        47.000  
C20  22083091.995   114992533.628 8        51.000    22083084.935    87789194.386 9        56.750    22083080.695    93440842.680 8        53.250    22083084.295    88919526.722 9        55.250    22083086.495    86658889.527 9        55.250    22083088.815   116047499.647 8        50.000  
C23  26039627.430   135595191.257 6        39.750    26039620.500   103517930.367 8        48.250    26039617.260   110182161.918 6        41.250    26039620.020   104850778.596 7        45.250    26039622.380   102185096.610 7        45.750    26039624.360   136839186.035 6        39.250  
C29  22553524.756   117442134.172 8        49.000    22553519.866    89659291.251 9        55.000    22553519.976    95431352.897 8        51.500    22553519.096    90813701.991 8        53.000    22553521.676    88504894.986 8        52.750    22553522.016   118519580.204 7        47.250  
C30  25357725.781   132044316.283 7        41.750    25357727.271   100807087.392 7        46.750    25357726.231   107296824.100 7        42.000    25357727.061   102105027.638 7        44.750    25357729.241    99509155.619 7        43.250    25357723.371   133255714.594 6        39.500  
C32  25288145.093   131682052.939 7        42.000    25288146.993   100530567.912 8        49.500    25288143.633   107002480.773 7        44.000    25288146.563   101824950.667 7        47.000    25288148.733    99236199.634 7        46.500    25288142.493   132890121.135 6        41.000  
C35  23628101.210   123037781.170 7        45.750    23628098.520    93931181.627 8        53.000    23628097.640    99978244.319 8        48.500    23628098.030    95140595.118 8        50.750    23628100.060    92721779.617 8        50.750    23628098.320   124166533.997 7        44.250  
C37  25041662.637   130398551.714 7        41.500    25041664.957    99550689.771 8        48.750    25041662.337   105959527.891 7        43.500    25041664.557   100832458.245 7        46.500    25041666.407    98268939.779 7        46.000    25041660.237   131594837.643 6        40.250  
C46                                                                                                  26107561.634   110469649.20914        28.000                                                                                                                                                  
C57  28863176.627   150298140.731 6        38.250                                                    28863297.117   122130071.049 7        43.000                                                                                                                                                  
> 2021 06 24 00 06 30.0000000  0 36      -0.000477865987
G05  22842359.802   120037437.177 7        44.250    22842360.012   120037436.175 7        44.000    22842359.062    93535682.576 7        43.750    22842359.202    93535673.576 7        44.000                                                                                                  
G10  24073468.570   126507015.195 6        40.250    24073468.540   126506940.198 4        27.750    24073470.190    98576853.502 7        41.750    24073470.480    98576841.504 4        27.750    24073468.700    94469474.295 8        48.750                                                  
G13  21998207.948   115601406.464 7        46.500    21998207.908   115601396.466 5        35.000                                                    21998206.168    90079020.219 5        35.000                                                                                                  
G15  20097518.355   105613253.818 8        49.750    20097518.495   105613241.816 7        45.500    20097516.255    82296064.293 8        51.000    20097516.015    82296051.303 7        45.500                                                                                                  
G18  20115244.255   105706352.771 8        48.500    20115244.495   105706351.779 7        45.000    20115242.715    82368598.693 9        55.250    20115242.725    82368594.699 7        45.000    20115246.645    78936571.016 9        58.500    20115244.055   105706349.775 8        50.000  
G20  23150927.522   121658953.355 7        43.500    23150926.872   121658965.365 4        26.750                                                    23150925.462    94799198.655 4        26.750                                                                                                  
G23  21385513.442   112381680.799 7        46.000    21385513.322   112381675.805 6        39.500    21385512.022    87570151.809 8        49.250    21385512.032    87570149.805 6        39.500    21385516.092    83921398.315 9        54.750    21385513.302   112381681.802 8        48.000  
G24  21924314.540   115213185.878 7        43.250    21924315.210   115213102.881 6        37.000    21924316.510    89776467.254 7        47.000    21924316.860    89776456.254 6        37.000    21924317.210    86035786.802 9        53.500                                                  
G27  24687085.245   129731518.370 6        36.250    24687085.965   129731510.381 3        20.000    24687087.885   101089495.143 6        38.500    24687088.375   101089490.134 3        20.000    24687087.565    96877437.608 7        44.000                                                  
G29  23614775.001   124096458.724 6        39.500    23614775.731   124096457.724 4        28.250    23614775.781    96698530.891 6        39.500    23614774.961    96698534.898 4        28.250                                                                                                  
R01  22958560.934   122726608.664 6        36.000    22958560.964   122726688.668 6        35.750    22958568.464    95454033.277 6        37.250    22958566.064    95454082.288 6        35.750                                                  
R06  23538105.358   125603860.538 5        29.500    23538106.148   125603869.514 5        30.000                                                                                                                                                  
R07  20169613.773   107969593.685 8        50.250    20169613.793   107969601.690 8        50.250    20169613.623    83976375.446 8        50.500    20169614.003    83976367.441 8        49.750                                                  
R08  20041858.285   107323318.430 8        48.750    20041858.695   107323337.436 8        49.250    20041857.485    83473744.126 8        50.750    20041857.375    83473731.123 8        49.500                                                  
R09  22965894.677   122636596.880 7        41.750    22965893.647   122636622.893 6        41.000    22965894.987    95384045.073 7        42.500    22965895.437    95384037.077 6        41.250    22965882.447    92082328.966 7        46.000  
R16  23063283.566   123199940.910 6        39.750    23063284.076   123199944.928 6        39.750    23063285.276    95822187.698 6        36.000    23063284.746    95822177.710 5        34.000                                                  
R21  23704533.169   126847703.520 6        38.000    23704531.809   126847721.517 6        37.750    23704535.529    98659318.259 6        35.750    23704536.079    98659313.265 5        35.250    23704520.619    95043844.909 6        35.500  
R22  20100260.265   107296573.224 7        42.250    20100261.385   107296568.226 7        41.750    20100261.145    83452888.308 6        39.000    20100261.665    83452881.309 6        38.000                                                  
R23  20426104.131   109265970.332 8        49.750    20426104.001   109265918.332 8        49.750                                                                                                                                                  
R24  23665526.653   126550235.236 7        43.750    23665526.233   126550235.237 7        42.750    23665527.823    98427959.600 6        39.250    23665527.903    98427958.589 6        38.000                                                  
E04  24794100.158   130293948.025 8        48.250    24794099.648    98566550.890 9        56.000    24794098.658   105758093.326 8        49.750    24794098.758    99835645.909 9        54.000    24794101.588    97297453.917 9        53.750  
E11  23585593.702   123943146.253 7        43.500    23585590.492    93762191.273 8        50.500    23585588.742   100603208.517 7        45.250    23585589.382    94969430.255 8        47.750    23585592.362    92554954.338 8        47.500  
E12  21696312.237   114014921.458 8        47.750    21696309.267    86251561.178 9        56.250    21696307.147    92544586.891 8        51.750    21696308.467    87362092.522 9        54.750    21696310.817    85141023.877 9        53.750  
E18  23304076.671   122463738.408 7        44.250    23304077.951    92643020.601 8        51.500    23304075.591    99402382.364 8        47.500    23304077.001    93835848.243 8        49.250    23304079.671    91450190.998 8        48.500  
E19  23292630.321   122403671.082 8        47.500    23292629.101    92597585.203 9        54.250    23292628.151    99353629.681 8        49.500    23292628.321    93789830.835 8        52.500    23292630.881    91405345.617 8        51.500  
E33  25805749.579   135610139.904 7        45.750    25805750.199   102588208.004 8        52.500    25805749.439   110073181.813 7        46.750    25805749.159   103909085.769 8        50.250    25805752.159   101267330.280 8        50.000  
C19  22613024.399   117752029.512 8        48.000    22613019.899    89895901.259 9        55.000    22613015.989    95683171.952 8        51.750    22613019.419    91053351.533 8        53.000    22613021.599    88738454.464 8        53.000    22613020.629   118832319.990 7        47.250  
C20  22087501.322   115015494.615 8        50.750    22087494.362    87806723.571 9        57.000    22087490.102    93459500.356 8        53.250    22087493.752    88937281.603 9        55.500    22087495.932    86676193.016 9        55.250    22087498.442   116070671.288 8        50.000  
C23  26041522.920   135605059.603 6        40.250    26041515.640   103525464.230 8        48.250    26041512.330   110190180.804 7        41.750    26041514.970   104858409.466 7        45.250    26041517.400   102192533.473 7        45.750    26041520.340   136849144.941 6        39.250  
C29  22564308.469   117498291.740 8        48.500    22564304.359    89702163.801 9        55.250    22564304.599    95476985.488 8        51.500    22564303.629    90857126.546 8        53.000    22564305.999    88547215.527 8        52.750    22564306.449   118576252.975 7        47.250  
C30  25377471.985   132147137.602 7        42.000    25377472.835   100885584.600 7        46.500    25377472.135   107380374.800 7        42.250    25377472.885   102184535.520 7        43.750    25377475.055    99586642.143 7        43.500    25377469.575   133359479.241 6        40.500  
C32  25301975.583   131754067.333 7        42.500    25301976.513   100585546.074 8        49.250    25301973.533   107060998.323 7        44.000    25301976.193   101880636.692 7        47.000    25301978.643    99290469.934 7        46.500    25301972.463   132962796.216 6        41.250  
C35  23621897.439   123005476.576 7        46.250    23621894.749    93906519.207 9        53.500    23621893.499    99951994.191 8        48.250    23621894.459    95115615.155 8        51.000    23621896.469    92697434.738 8        51.000    23621894.479   124133933.026 7        44.500  
C37  25030981.208   130342936.450 6        41.250    25030984.578    99508231.266 8        48.750    25030982.088   105914336.002 7        43.750    25030983.958   100789453.056 7        46.250    25030986.238    98227027.953 7        46.250    25030979.278   131538712.129 6        40.000  
C46                                                                                                  26090871.930   110399022.635 4        27.750                                                                                                                                                  
C57  28849849.787   150228744.975 6        38.750                                                    28849970.327   122073681.338 7        43.500                                                                                                                                                  
> 2021 06 24 00 07  0.0000000  0 35      -0.000477865446
G05  22856571.739   120112120.048 7        44.000    22856571.889   120112119.046 7        44.250    22856571.319    93593876.980 7        44.250    22856570.919    93593867.979 7        44.250                                                                                                  
G10  24058659.932   126429198.728 6        39.500    24058660.512   126429123.745 4        28.000    24058662.242    98516217.351 7        41.750    24058661.962    98516205.342 4        28.000    24058660.842    94411364.66118        48.250                                                  
G13  22014784.096   115688514.593 7        45.500    22014784.416   115688504.588 5        34.250                                                    22014782.496    90146896.655 5        34.250                                                                                                  
G15  20105587.124   105655656.126 8        50.000    20105587.394   105655644.125 7        45.500    20105585.064    82329105.043 8        50.750    20105584.764    82329092.050 7        45.500                                                                                                  
G18  20110343.513   105680599.440 8        49.000    20110343.543   105680598.446 7        45.000    20110341.893    82348531.162 9        55.250    20110341.983    82348527.166 7        45.000    20110346.043    78917339.630 9        58.500    20110343.273   105680596.449 8        50.000  
G20  23165836.227   121737299.362 7        42.750    23165835.587   121737311.349 4        27.000                                                    23165835.137    94860247.421 4        27.000                                                                                                  
G23  21375210.321   112327539.793 7        46.000    21375210.801   112327534.803 6        39.500    21375209.121    87527964.013 8        49.250    21375209.341    87527962.012 6        39.500    21375213.441    83880968.353 9        54.750    21375210.491   112327540.799 8        47.500  
G24  21907633.505   115125522.239 7        44.000    21907633.645   115125439.240 6        37.500    21907634.765    89708157.989 8        47.500    21907634.815    89708146.982 6        37.500    21907635.425    85970323.757 9        53.500                                                  
G27  24676971.869   129678364.407 6        37.000    24676970.689   129678356.414 3        20.750    24676972.109   101048076.516 6        38.250    24676972.179   101048071.524 3        20.750    24676973.009    96837744.752 7        45.250                                                  
G29  23634447.100   124199834.137 6        39.500    23634447.360   124199833.133 4        27.500    23634446.930    96779083.095 6        39.250    23634447.380    96779087.117 4        27.500                                                                                                  
R01  22942654.499   122641577.149 6        36.250    22942654.159   122641657.157 6        36.000    22942656.059    95387897.772 6        37.000    22942658.419    95387946.773 6        36.250                                                  
R06  23556238.749   125700607.460 5        31.000    23556237.139   125700616.459 5        31.750                                                                                                                                                  
R07  20180163.468   108026064.708 8        50.000    20180163.118   108026072.715 8        50.250    20180163.458    84020297.327 8        50.750    20180163.168    84020289.326 8        49.750                                                  
R08  20036500.897   107294628.618 8        48.750    20036500.937   107294647.628 8        48.750    20036499.997    83451429.850 8        50.750    20036499.837    83451416.848 8        49.750                                                  
R09  22950978.497   122556951.494 6        40.750    22950977.827   122556977.50416        41.250    22950981.547    95322098.775 7        43.250    22950979.957    95322090.77116        41.250    22950966.827    92022526.93617        45.500  
R16  23063789.836   123202638.642 6        40.500    23063789.486   123202642.651 6        40.000    23063790.776    95824285.94115        35.000    23063790.286    95824275.95015        33.500                                                  
R21  23730431.714   126986295.88616        38.250    23730431.764   126986313.88616        38.250    23730437.314    98767112.19916        37.000    23730436.154    98767107.20616        35.500    23730420.364    95147688.65316        36.500  
R22  20116711.906   107384394.855 7        42.000    20116712.506   107384389.860 7        41.500    20116713.196    83521193.992 6        38.750    20116714.176    83521187.004 6        37.750                                                  
R23  20413220.039   109197049.558 8        49.500    20413219.799   109196997.555 8        49.500                                                                                                                                                  
R24  23642397.202   126426548.568 7        43.500    23642397.122   126426548.580 7        43.000    23642398.342    98331758.966 6        39.750    23642397.402    98331757.968 6        38.250                                                  
E04  24784558.860   130243808.326 8        48.250    24784558.330    98528620.572 9        55.750    24784557.280   105717395.544 8        48.750    24784557.400    99797227.211 9        54.000    24784560.190    97260011.976 9        53.500  
E11  23573222.748   123878139.168 7        43.000    23573220.048    93713013.855 8        50.250    23573218.318   100550443.028 7        45.000    23573219.098    94919619.652 8        48.000    23573221.608    92506410.106 8        47.500  
E12  21699430.523   114031310.240 8        47.500    21699427.973    86263959.175 9        56.500    21699426.013    92557889.466 8        52.000    21699427.253    87374650.153 9        54.750    21699429.543    85153262.24319        53.750  
E18  23338702.935   122645701.915 7        44.250    23338704.465    92780674.742 8        51.250    23338702.165    99550079.957 7        47.000    23338703.625    93975274.757 8        49.250    23338706.155    91586072.769 8        48.250  
E19  23298002.539   122431901.919 8        47.500    23298001.249    92618941.638 9        54.500    23298000.489    99376544.321 8        49.250    23298000.439    93811462.245 8        52.500    23298002.959    91426427.073 8        51.500  
E33  25821585.150   135693355.355 7        45.250    25821585.340   102651159.907 8        52.250    25821584.940   110140726.765 8        48.250    25821584.510   103972848.196 8        50.250    25821587.180   101329471.658 8        49.500  
C19  22604416.592   117707206.037 8        48.250    22604412.002    89861681.521 9        55.250    22604408.002    95646749.218 8        51.500    22604411.502    91018691.196 8        53.250    22604413.902    88704675.323 8        53.250    22604412.842   118787085.294 7        47.250  
C20  22091945.016   115038633.618 8        50.750    22091937.976    87824388.661 9        57.000    22091933.816    93478302.684 8        53.000    22091937.376    88955174.141 9        55.250    22091939.556    86693630.657 9        55.250    22091941.806   116094022.57518        50.250  
C23  26043506.314   135615385.351 6        40.250    26043498.584   103533347.263 8        48.250    26043495.034   110198571.324 7        41.500    26043497.934   104866393.998 7        45.750    26043500.254   102200315.007 7        45.750    26043501.924   136859565.433 6        38.000  
C29  22575172.135   117554860.706 8        48.500    22575167.865    89745350.419 9        55.250    22575168.065    95522952.37518        51.250    22575167.065    90900869.219 8        53.250    22575169.585    88589846.09318        52.750    22575170.125   118633340.92817        47.000  
C30  25397220.096   132249970.644 6        41.000    25397221.056   100964090.761 7        46.250    25397220.056   107463935.012 7        42.250    25397220.566   102264052.503 7        43.000    25397223.116    99664137.48717        44.000    25397217.606   133463255.69016        39.750  
C32  25315805.451   131826091.350 7        42.000    25315807.981   100640531.590 8        49.250    25315804.911   107119523.697 7        43.500    25315807.541   101936330.178 7        47.000    25315810.091    99344747.47717        46.750    25315803.951   133035481.02117        41.500  
C35  23615786.138   122973651.085 7        46.000    23615782.958    93882222.554 8        53.250    23615782.018    99926133.369 8        49.000    23615782.478    95091005.664 8        50.750    23615784.728    92673450.922 8        50.750    23615782.678   124101815.557 7        44.500  
C37  25020359.263   130287620.651 6        41.250    25020361.713    99466001.415 8        49.000    25020359.693   105869387.461 7        44.250    25020361.353   100746679.463 7        46.000    25020363.323    98185341.842 7        46.250    25020356.903   131482888.89016        40.500  
C57  28836589.281   150159699.000 6        38.500                                                    28836710.671   122017575.826 7        44.000                                                                                                                                                  
> 2021 06 24 00 07 30.0000000  0 35      -0.000477866874
G05  22870805.915   120186922.301 7        44.250    22870806.295   120186921.296 7        44.000    22870805.845    93652164.419 7        44.250    22870805.205    93652155.417 7        44.000                                                                                                  
G10  24043856.251   126351404.741 6        39.250    24043855.721   126351329.738 4        27.500    24043858.001    98455598.689 6        41.250    24043857.961    98455586.693 4        27.500    24043857.081    94353271.774 8        48.000                                                  
G13  22031412.478   115775895.632 7        46.250    22031412.118   115775885.628 5        34.500                                                    22031410.458    90214985.737 5        34.500                                                                                                  
G15  20113739.810   105698498.729 8        49.750    20113740.080   105698486.723 7        45.500    20113737.640    82362488.872 8        50.750    20113737.460    82362475.879 7        45.500                                                                                                  
G18  20105539.585   105655354.304 8        48.500    20105539.705   105655353.308 7        45.000    20105537.885    82328859.624 9        55.000    20105537.905    82328855.628 7        45.000    20105542.115    78898487.742 9        58.500    20105539.205   105655351.309 8        50.000  
G20  23180771.233   121815787.238 6        41.250    23180770.653   121815799.233 4        26.250                                                    23180770.403    94921406.756 4        26.250                                                                                                  
G23  21364939.149   112273563.273 7        46.000    21364939.149   112273558.275 6        39.500    21364937.839    87485904.401 8        49.250    21364937.759    87485902.401 6        39.500    21364942.039    83840661.223 9        54.500    21364939.039   112273564.278 8        47.750  
G24  21891016.176   115038202.196 7        43.500    21891017.136   115038119.195 6        37.250    21891018.146    89640116.454 7        47.250    21891017.786    89640105.443 6        37.250    21891018.886    85905117.307 9        53.500                                                  
G27  24666949.489   129625701.893 6        36.250    24666949.119   129625693.895 3        21.500    24666951.209   101007040.797 6        38.250    24666951.869   101007035.796 3        21.500    24666951.609    96798418.867 7        45.750                                                  
G29  23654136.491   124303305.494 6        40.250    23654137.011   124303304.492 4        28.250    23654136.961    96859710.062 6        39.500    23654137.371    96859714.071 4        28.250                                                                                                  
R01  22926787.711   122556749.166 6        38.500    22926786.631   122556829.158 6        37.750    22926789.761    95321920.512 6        38.250    22926790.381    95321969.507 6        36.750                                                  
R06  23574358.115   125797287.760 6        35.500    23574357.695   125797296.781 5        34.250                                                                                                                                                  
R07  20190754.001   108082756.509 8        50.500    20190753.591   108082764.514 8        50.750    20190753.441    84064390.933 8        50.250    20190753.611    84064382.923 8        49.500                                                  
R08  20031210.420   107266298.997 8        49.250    20031210.510   107266318.011 8        49.250    20031209.530    83429395.707 8        50.500    20031209.790    83429382.710 8        49.750                                                  
R09  22936140.527   122477713.938 7        42.250    22936139.167   122477739.947 7        42.250    22936142.297    95260469.658 7        42.500    22936141.527    95260461.657 6        41.000    22936128.177    91963031.136 7        45.250  
R16  23064431.531   123206065.931 6        41.000    23064430.881   123206069.934 6        40.000    23064432.751    95826951.617 6        36.250    23064431.881    95826941.617 5        34.500                                                  
R21  23756340.932   127124942.382 6        37.750    23756340.772   127124960.376 6        37.250    23756346.462    98874948.262 6        36.750    23756345.512    98874943.264 6        35.500    23756330.162    95251572.913 6        36.500  
R22  20133279.635   107472834.606 7        42.000    20133279.875   107472829.606 7        41.750    20133281.795    83589980.437 6        38.750    20133281.305    83589973.429 6        38.000                                                  
R23  20400463.795   109128814.599 8        49.750    20400463.825   109128762.598 8        49.750                                                                                                                                                  
R24  23619307.668   126303080.710 7        43.000    23619307.688   126303080.715 7        42.750    23619307.358    98235728.507 6        39.000    23619308.248    98235727.506 6        38.000                                                  
E04  24775061.092   130193895.723 8        48.500    24775060.252    98490862.041 9        55.750    24775059.352   105676882.088 8        49.000    24775059.332    99758982.518 9        54.000    24775062.072    97222739.608 9        53.500  
E11  23560897.980   123813371.809 7        43.250    23560895.190    93664017.811 8        50.500    23560893.540   100497872.163 7        45.500    23560894.490    94869992.750 8        48.250    23560896.800    92458044.916 8        47.500  
E12  21702625.911   114048100.974 8        47.750    21702623.151    86276661.242 9        56.250    21702621.121    92571518.298 8        52.000    21702622.311    87387515.767 9        54.500    21702624.701    85165800.764 9        53.750  
E18  23373360.423   122827828.164 7        44.250    23373361.903    92918452.007 8        51.000    23373359.803    99697909.656 7        47.000    23373360.683    94114825.979 8        48.750    23373363.873    91722076.078 8        48.250  
E19  23303416.489   122460352.331 8        47.500    23303415.199    92640464.181 9        54.500    23303414.109    99399637.180 8        49.250    23303414.369    93833261.905 8        52.500    23303416.899    91447672.503 8        51.500  
E33  25837457.920   135776767.339 7        45.250    25837458.180   102714260.502 8        52.250    25837457.420   110208431.289 8        47.500    25837456.690   104036761.258 8        49.500    25837460.300   101391759.794 8        50.000  
C19  22595841.788   117662556.682 8        48.250    22595837.518    89827594.720 9        55.000    22595833.608    95610467.982 8        51.500    22595837.088    90984165.507 8        53.000    22595839.298    88671027.412 8        53.250    22595838.328   118742026.316 7        47.250  
C20  22096422.919   115061949.920 8        51.000    22096415.639    87842189.110 9        57.000    22096411.429    93497249.087 8        53.250    22096415.009    88973203.783 9        55.500    22096417.269    86711201.914 9        55.500    22096419.669   116117552.791 8        50.250  
C23  26045576.238   135626168.542 6        38.750    26045569.338   103541579.520 8        48.250    26045565.328   110207333.558 6        41.000    26045568.848   104874732.246 7        46.000    26045571.318   102208441.274 7        45.750    26045572.228   136870447.522 6        36.500  
C29  22586114.439   117611839.262 8        48.500    22586110.049    89788849.733 9        54.750    22586110.199    95569252.087 8        51.250    22586109.169    90944928.613 8        53.000    22586111.809    88632785.328 8        52.750    22586112.209   118690842.222 7        47.250  
C30  25416970.393   132352813.282 6        40.750    25416971.133   101042604.236 7        46.250    25416970.013   107547502.997 7        42.000    25416970.283   102343576.904 7        43.250    25416973.313    99741640.045 7        44.000    25416967.503   133567041.845 6        39.000  
C32  25329638.754   131898124.704 7        41.500    25329641.354   100695524.231 8        49.250    25329638.204   107178056.671 7        43.500    25329640.814   101992030.890 7        46.750    25329643.334    99399032.048 7        46.500    25329637.114   133108175.209 7        41.500  
C35  23609766.074   122942305.718 7        46.000    23609763.464    93858292.439 8        53.250    23609762.554    99900662.692 8        48.750    23609763.034    95066767.439 8        51.000    23609765.164    92649828.916 8        50.750    23609763.464   124070182.619 7        45.000  
C37  25009793.827   130232606.721 6        41.000    25009796.727    99424001.970 8        49.000    25009794.987   105824684.169 7        44.500    25009796.397   100704139.248 7        46.250    25009798.487    98143883.168 7        46.500    25009791.697   131427370.217 6        40.500  
C57  28823397.558   150091004.677 6        38.750                                                    28823518.708   121961756.125 7        44.000                                                                                                                                                  
> 2021 06 24 00 08  0.0000000  0 35      -0.000477865613
G05  22885063.154   120261843.627 7        44.250    22885063.264   120261842.626 7        43.750    22885062.834    93710544.635 7        43.750    22885062.144    93710535.629 7        43.750                                                                                                  
G10  24029057.449   126273633.406 6        39.750    24029057.339   126273558.409 4        26.500    24029058.599    98394997.689 6        41.000    24029059.389    98394985.693 4        26.500    24029057.659    94295195.834 8        48.000                                                  
G13  22048091.776   115863547.070 7        46.250    22048091.516   115863537.070 5        34.250                                                    22048090.186    90283285.538 5        34.250                                                                                                  
G15  20121976.159   105741779.777 8        49.750    20121976.219   105741767.776 7        45.250    20121973.769    82396214.356 8        50.750    20121973.659    82396201.360 7        45.250                                                                                                  
G18  20100832.645   105630618.971 8        49.250    20100832.815   105630617.976 7        45.250    20100830.815    82309585.336 9        54.750    20100830.985    82309581.341 7        45.250    20100835.045    78880016.550 9        58.250    20100832.535   105630615.973 8        50.250  
G20  23195734.023   121894416.876 7        41.750    23195733.763   121894428.875 4        25.500                                                    23195733.653    94982676.569 4        25.500                                                                                                  
G23  21354699.324   112219751.812 7        46.750    21354699.224   112219746.811 6        39.750    21354697.714    87443973.400 8        49.250    21354698.144    87443971.404 6        39.750    21354702.014    83800477.350 9        54.750    21354699.024   112219752.811 8        47.750  
G24  21874466.084   114951228.945 7        43.750    21874466.254   114951145.930 6        37.500    21874468.154    89572345.124 8        48.250    21874468.014    89572334.126 6        37.500    21874468.164    85840169.804 8        53.000                                                  
G27  24657022.735   129573532.484 6        37.500    24657022.795   129573524.485 3        22.000    24657023.015   100966389.305 6        38.250    24657024.095   100966384.307 3        22.000    24657024.045    96759461.194 7        45.250                                                  
G29  23673845.090   124406869.835 6        40.750    23673844.480   124406868.830 4        29.000    23673844.640    96940409.473 6        39.500    23673844.330    96940413.490 4        29.000                                                                                                  
R01  22910955.561   122472125.359 6        39.500    22910956.021   122472205.363 6        38.500    22910960.041    95256102.087 6        39.000    22910960.601    95256151.093 6        38.000                                                  
R06  23592462.646   125893900.530 6        36.000    23592461.586   125893909.525 5        34.750                                                                                                                                                  
R07  20201384.801   108139667.230 8        51.000    20201385.071   108139675.231 8        51.250    20201385.301    84108654.789 8        50.250    20201385.031    84108646.786 8        49.500                                                  
R08  20025987.031   107238328.149 8        50.000    20025986.991   107238347.161 8        49.750    20025986.181    83407640.614 8        50.500    20025986.031    83407627.614 8        49.750                                                  
R09  22921378.130   122398888.402 7        42.500    22921377.850   122398914.416 7        42.750    22921379.720    95199161.002 6        41.000    22921379.630    95199153.001 6        40.000    22921366.750    91903844.674 7        45.000  
R16  23065208.686   123210223.212 6        39.750    23065208.516   123210227.216 6        39.750    23065210.146    95830184.993 6        36.250    23065209.876    95830175.021 5        34.250                                                  
R21  23782260.525   127263639.680 6        37.000    23782260.045   127263657.675 6        36.500    23782266.475    98982823.826 6        37.000    23782265.015    98982818.818 6        36.000    23782249.235    95355495.262 6        36.500  
R22  20149964.674   107561889.337 7        42.250    20149963.244   107561884.339 7        42.000    20149964.344    83659245.195 6        38.750    20149964.234    83659238.199 6        37.500                                                  
R23  20387837.402   109061268.941 8        50.500    20387836.992   109061216.941 8        50.750                                                                                                                                                  
R24  23596259.419   126179835.568 6        40.750    23596259.239   126179835.557 6        41.250    23596260.109    98139871.225 6        39.000    23596260.389    98139870.221 6        38.750                                                  
E04  24765605.943   130144210.263 8        48.500    24765605.383    98453275.337 9        55.750    24765604.113   105636553.004 8        49.750    24765604.383    99720911.867 9        54.000    24765607.233    97185636.857 9        53.500  
E11  23548618.736   123748845.787 7        43.500    23548616.326    93615204.318 8        50.500    23548614.846   100445497.155 7        45.250    23548615.276    94820550.761 8        48.000    23548617.926    92409859.922 8        47.500  
E12  21705897.790   114065293.773 8        47.750    21705894.850    86289667.472 9        56.250    21705892.720    92585473.487 8        52.000    21705893.920    87400689.462 9        54.750    21705896.370    85178639.530 9        53.750  
E18  23408048.148   123010111.367 7        44.500    23408049.368    93056348.010 8        51.000    23408046.908    99845866.756 7        46.750    23408048.178    94254497.474 8        48.500    23408051.538    91858196.589 8        48.750  
E19  23308872.128   122489021.190 8        47.500    23308870.688    92662151.976 9        54.250    23308869.748    99422907.348 8        49.250    23308869.858    93855228.941 8        52.500    23308872.458    91469081.057 8        51.250  
E33  25853367.941   135860374.565 7        45.500    25853368.221   102777508.780 8        52.250    25853367.641   110276294.262 8        47.750    25853367.131   104100823.895 8        50.000    25853370.231   101454193.710 8        49.750  
C19  22587300.652   117618081.291 8        48.000    22587296.482    89793640.713 9        55.000    22587292.572    95574328.089 8        51.500    22587296.082    90949774.325 8        53.000    22587298.272    88637510.581 8        53.000    22587297.252   118697142.886 7        47.250  
C20  22100934.509   115085442.904 8        51.000    22100927.209    87860124.437 9        57.000    22100922.989    93516339.049 8        53.250    22100926.559    88991370.035 9        55.250    22100928.919    86728906.314 9        55.500    22100931.059   116141261.296 8        49.750  
C23  26047735.992   135637409.230 6        40.000    26047728.082   103550161.065 8        48.500    26047724.502   110216467.570 6        41.250    26047727.912   104883424.290 7        46.250    26047730.162   102216912.317 7        46.000    26047731.922   136881791.353 6        38.500  
C29  22597135.051   117669225.620 8        48.500    22597130.521    89832660.367 9        55.000    22597130.511    95615883.160 8        51.250    22597129.761    90989303.334 8        53.000    22597132.451    88676031.872 8        52.750    22597132.751   118748755.046 7        47.000  
C30  25436721.662   132455663.291 6        40.500    25436722.552   101121123.350 7        46.500    25436721.692   107631077.028 7        41.500    25436721.972   102423107.008 7        43.500    25436724.552    99819148.175 7        44.000    25436718.502   133670835.427 6        39.500  
C32  25343474.629   131970167.113 7        42.250    25343476.359   100750523.806 8        49.250    25343473.199   107236597.003 7        43.750    25343475.959   102047738.620 7        46.750    25343478.299    99453323.471 7        46.250    25343472.659   133180878.564 7        41.500  
C35  23603838.517   122911441.471 7        46.500    23603836.337    93834729.625 8        53.250    23603835.237    99875582.956 8        49.000    23603835.957    95042901.250 8        50.750    23603837.937    92626569.481 8        50.750    23603836.187   124039035.216 7        44.750  
C37  24999288.588   130177896.774 7        41.500    24999290.138    99382234.615 8        49.000    24999288.118   105780227.912 7        44.250    24999289.848   100661834.108 7        46.250    24999292.028    98102653.602 7        46.500    24999285.178   131372158.364 6        40.500  
C57  28810272.606   150022664.137 6        38.750                                                    28810394.686   121906223.859 7        44.250                                                                                                                                                  
> 2021 06 24 00 08 30.0000000  0 35      -0.000477864998
G05  22899343.175   120336883.660 7        43.500    22899343.085   120336882.662 7        43.750    22899341.795    93769017.351 7        43.250    22899341.635    93769008.348 7        43.750                                                                                                  
G10  24014261.764   126195884.855 6        39.750    24014262.164   126195809.851 4        27.000    24014263.614    98334414.441 6        40.250    24014263.724    98334402.427 4        27.000    24014262.054    94237136.892 7        47.250                                                  
G13  22064822.370   115951466.243 7        46.000    22064822.000   115951456.244 5        34.000                                                    22064820.840    90351793.953 5        34.000                                                                                                  
G15  20130295.199   105785497.291 8        49.750    20130295.419   105785485.289 7        45.500    20130293.179    82430279.935 8        50.750    20130292.759    82430266.943 7        45.500                                                                                                  
G18  20096222.895   105606394.945 8        49.250    20096223.025   105606393.951 7        45.250    20096221.435    82290709.470 9        55.250    20096221.255    82290705.476 7        45.250    20096225.325    78861927.180 9        58.750    20096222.835   105606391.948 8        50.250  
G20  23210724.924   121973188.186 7        42.750    23210723.544   121973200.193 4        26.250                                                    23210723.984    95044056.771 4        26.250                                                                                                  
G23  21344490.821   112166105.904 7        46.250    21344490.801   112166100.912 6        39.500    21344489.121    87402171.407 8        49.500    21344489.471    87402169.412 6        39.500    21344493.571    83760417.112 9        54.750    21344490.511   112166106.903 8        48.000  
G24  21857982.315   114864605.610 7        44.250    21857982.605   114864522.608 6        37.500    21857983.925    89504846.498 8        48.000    21857983.815    89504835.497 6        37.500    21857984.435    85775483.636 8        53.000                                                  
G27  24647189.652   129521857.815 6        37.250    24647189.142   129521849.795 3        22.000    24647190.032   100926123.314 6        38.500    24647189.972   100926118.310 3        22.000    24647190.542    96720872.967 7        45.000                                                  
G29  23693569.317   124510523.546 6        39.250    23693569.197   124510522.534 4        28.000    23693570.657    97021178.511 6        39.500    23693569.857    97021182.531 4        28.000                                                                                                  
R01  22895162.554   122387705.545 6        39.000    22895162.194   122387785.559 6        39.000    22895166.484    95190442.338 6        39.250    22895168.034    95190491.342 6        37.500                                                  
R06  23610552.648   125990445.264 5        33.500    23610552.128   125990454.251 5        33.250                                                                                                                                                  
R07  20212057.443   108196794.721 8        50.250    20212057.153   108196802.729 8        50.500    20212057.123    84153087.255 8        50.500    20212057.023    84153079.254 8        49.500                                                  
R08  20020831.290   107210715.591 8        49.500    20020830.830   107210734.603 8        49.000    20020829.540    83386164.193 8        51.000    20020829.540    83386151.193 8        49.750                                                  
R09  22906696.491   122320478.729 7        44.500    22906694.871   122320504.737 7        43.500    22906695.961    95138175.735 6        40.250    22906695.561    95138167.733 6        39.750    22906682.911    91844970.467 7        45.000  
R16  23066123.888   123215111.271 6        41.000    23066125.108   123215115.284 6        40.250    23066123.448    95833986.857 5        35.250    23066124.918    95833976.860 5        34.500                                                  
R21  23808188.717   127402383.937 6        35.750    23808187.527   127402401.933 5        34.750    23808193.737    99090735.913 6        36.250    23808191.647    99090730.917 5        35.250    23808177.487    95459452.810 6        37.250  
R22  20166761.433   107651555.660 7        42.250    20166761.273   107651550.662 7        41.750    20166762.423    83728985.631 6        38.500    20166762.533    83728978.646 6        37.500                                                  
R23  20375339.616   108994415.981 8        49.500    20375339.216   108994363.975 8        49.750                                                                                                                                                  
R24  23573255.646   126056817.311 6        39.500    23573253.586   126056817.296 6        39.500    23573255.416    98044190.458 6        40.500    23573256.496    98044189.456 6        39.250                                                  
E04  24756194.387   130094751.973 8        48.500    24756193.757    98415860.492 9        56.000    24756192.607   105596408.303 8        50.000    24756192.817    99683015.278 9        54.000    24756195.647    97148703.751 9        53.500  
E11  23536386.535   123684562.810 7        43.750    23536383.645    93566574.698 8        50.750    23536382.085   100393319.438 7        45.500    23536382.695    94771295.010 8        48.500    23536385.135    92361856.437 8        47.750  
E12  21709245.950   114082888.746 8        47.750    21709243.070    86302977.949 9        56.500    21709241.110    92599755.116 8        50.500    21709242.280    87414171.320 9        54.750    21709244.600    85191778.626 9        53.750  
E18  23442764.143   123192545.732 7        44.500    23442765.683    93194358.363 8        51.500    23442763.503    99993946.537 7        46.750    23442764.483    94394284.788 8        48.750    23442767.863    91994429.971 8        49.250  
E19  23314368.852   122517907.379 8        47.500    23314367.552    92684004.183 9        54.250    23314366.522    99446353.927 8        48.250    23314366.722    93877362.509 8        52.500    23314369.282    91490651.907 8        51.500  
E33  25869314.859   135944175.794 7        45.500    25869315.009   102840903.842 8        52.250    25869314.549   110344314.721 8        48.000    25869314.099   104165035.194 8        50.000    25869316.979   101516772.531 8        49.500  
C19  22578792.730   117573779.585 8        48.000    22578788.790    89759819.315 9        55.250    22578784.880    95538329.337 8        51.750    22578788.340    90915517.457 8        53.250    22578790.620    88604124.654 8        53.000    22578789.750   118652434.750 8        47.500  
C20  22105479.796   115109111.896 8        50.750    22105472.606    87878194.145 9        57.000    22105468.366    93535572.043 8        53.250    22105471.946    89009672.396 9        55.250    22105474.266    86746743.365 9        55.500    22105476.536   116165147.443 8        50.250  
C23  26049982.841   135649107.385 6        40.500    26049974.591   103559091.857 8        48.750    26049971.391   110225973.302 7        42.250    26049974.121   104892470.074 7        46.250    26049976.361   102225728.125 7        46.000    26049978.471   136893596.826 6        38.500  
C29  22608233.323   117727017.925 8        48.500    22608228.953    89876780.927 9        55.000    22608229.193    95662844.114 8        51.500    22608228.183    91033991.970 8        53.000    22608230.753    88719584.355 8        52.500    22608230.963   118807077.570 7        47.000  
C30  25456473.329   132558518.517 6        40.000    25456474.899   101199646.439 7        47.000    25456474.099   107714655.279 7        42.000    25456474.699   102502641.125 7        44.500    25456476.519    99896660.230 7        43.750    25456471.339   133774634.297 6        39.250  
C32  25357311.171   132042218.276 7        42.500    25357313.051   100805530.041 8        49.000    25357310.561   107295144.415 7        44.250    25357312.471   102103453.086 7        46.750    25357314.921    99507621.473 7        46.250    25357309.061   133253590.746 6        41.250  
C35  23598004.780   122881059.263 7        46.500    23598001.810    93811534.820 8        53.250    23598000.940    99850894.919 8        49.000    23598001.380    95019407.795 8        51.000    23598003.380    92603673.320 8        51.000    23598001.720   124008374.274 7        44.750  
C37  24988840.278   130123493.061 7        41.500    24988842.398    99340701.051 8        49.000    24988840.628   105736020.492 7        44.750    24988841.748   100619765.772 7        46.250    24988843.958    98061654.809 7        46.500    24988837.578   131317255.538 6        40.750  
C57  28797219.181   149954679.215 6        40.750                                                    28797338.901   121850980.572 7        44.750                                                                                                                                                  
> 2021 06 24 00 09  0.0000000  0 35      -0.000477864610
G05  22913645.570   120412042.552 7        44.000    22913645.520   120412041.554 7        43.500    22913644.140    93827582.673 7        43.250    22913643.810    93827573.678 7        43.500                                                                                                  
G10  23999471.906   126118159.353 6        40.250    23999471.086   126118084.346 4        25.000    23999473.236    98273849.132 6        40.250    23999473.516    98273837.135 4        25.000    23999471.556    94179095.159 7        47.250                                                  
G13  22081603.400   116039650.763 7        46.000    22081603.200   116039640.763 5        34.500                                                    22081601.860    90420509.118 5        34.500                                                                                                  
G15  20138696.970   105829649.445 8        49.750    20138697.270   105829637.441 7        45.250    20138694.830    82464684.198 8        50.750    20138694.710    82464671.206 7        45.250                                                                                                  
G18  20091710.537   105582683.786 8        48.750    20091710.907   105582682.792 7        45.000    20091709.047    82272233.252 9        54.750    20091709.257    82272229.255 7        45.000    20091713.237    78844220.801 9        58.500    20091710.477   105582680.793 8        50.000  
G20  23225741.350   122052100.629 7        42.000    23225740.410   122052112.626 4        25.750                                                    23225739.220    95105546.937 4        25.750                                                                                                  
G23  21334313.823   112112626.109 7        46.000    21334314.143   112112621.115 6        39.750    21334312.353    87360498.849 8        49.500    21334312.373    87360496.848 6        39.750    21334316.543    83720480.911 9        54.750    21334313.683   112112627.109 8        48.000  
G24  21841565.123   114778335.369 7        43.750    21841565.523   114778252.364 6        37.250    21841567.063    89437622.975 8        48.000    21841567.343    89437611.972 6        37.250    21841567.073    85711061.119 8        52.250                                                  
G27  24637449.694   129470679.410 6        37.000    24637449.914   129470671.414 3        20.500    24637451.624   100886244.065 6        37.250    24637451.624   100886239.073 3        20.500    24637451.784    96682655.370 7        44.250                                                  
G29  23713309.846   124614263.712 6        39.250    23713310.486   124614262.711 4        27.500    23713311.126    97102014.930 6        39.500    23713310.596    97102018.944 4        27.500                                                                                                  
R01  22879409.980   122303490.025 6        41.000    22879408.800   122303570.029 6        40.000    22879410.860    95124941.448 6        38.750    22879412.640    95124990.452 6        37.000                                                  
R06  23628631.435   126086921.230 5        33.750    23628631.845   126086930.230 5        33.750                                                                                                                                                  
R07  20222768.797   108254137.333 8        50.750    20222769.087   108254145.336 8        51.000    20222768.977    84197687.034 8        50.500    20222769.447    84197679.031 8        49.500                                                  
R08  20015740.592   107183460.193 8        49.250    20015741.052   107183479.205 8        49.500    20015740.532    83364965.566 8        51.250    20015740.032    83364952.564 8        50.000                                                  
R09  22892090.256   122242489.253 7        44.750    22892090.316   122242515.256 7        44.750    22892090.936    95077517.320 6        40.500    22892090.586    95077509.322 6        39.750    22892078.356    91786411.748 7        45.000  
R16  23067174.305   123220730.248 6        39.500    23067175.445   123220734.267 6        38.500    23067174.595    95838357.207 6        35.500    23067177.485    95838347.219 5        34.500                                                  
R21  23834126.182   127541171.896 5        34.250    23834124.402   127541189.874 5        32.750    23834127.832    99198681.998 6        36.500    23834128.222    99198677.002 5        34.250    23834114.242    95563443.056 6        37.000  
R22  20183671.796   107741830.298 7        42.000    20183672.336   107741825.297 7        41.500    20183674.296    83799199.223 6        38.500    20183673.516    83799192.210 6        37.500                                                  
R23  20362972.422   108928259.151 8        49.750    20362972.042   108928207.142 8        50.000                                                                                                                                                  
R24  23550293.316   125934029.597 6        40.500    23550292.286   125934029.578 6        39.750    23550293.516    97948688.980 6        40.750    23550294.036    97948687.988 6        39.500                                                  
E04  24746825.886   130045520.777 8        48.500    24746825.336    98378617.431 9        56.000    24746824.516   105556447.932 8        50.500    24746824.456    99645292.691 9        54.250    24746827.096    97111940.215 9        53.500  
E11  23524200.266   123620524.627 7        43.750    23524197.586    93518130.247 8        50.750    23524196.346   100341340.402 7        45.750    23524196.646    94722226.811 8        48.250    23524199.196    92314035.735 8        47.750  
E12  21712670.660   114100886.067 8        48.000    21712667.870    86316592.792 9        56.500    21712665.960    92614363.318 8        51.750    21712667.100    87427961.460 9        54.750    21712669.420    85205218.170 9        53.750  
E18  23477508.203   123375125.438 7        44.750    23477509.593    93332478.662 8        51.750    23477506.913   100142144.295 7        46.000    23477508.673    94534183.470 8        49.250    23477511.613    92130771.889 8        49.500  
E19  23319906.955   122547009.769 8        47.500    23319905.575    92706019.945 9        54.250    23319904.615    99469975.991 8        49.500    23319904.825    93899661.736 8        52.250    23319907.385    91512384.202 8        51.250  
E33  25885298.177   136028169.697 7        45.250    25885298.527   102904444.648 8        52.250    25885297.747   110412491.556 7        45.750    25885297.547   104229394.123 8        49.750    25885300.637   101579495.212 8        49.500  
C19  22570318.542   117529651.453 8        48.250    22570314.442    89726130.419 9        55.500    22570310.552    95502471.626 8        51.500    22570314.022    90881394.792 9        53.500    22570316.252    88570869.520 8        53.250    22570315.232   118607901.766 8        47.500  
C20  22110058.747   115132956.250 8        50.750    22110051.677    87896397.726 9        57.000    22110047.407    93554947.534 8        53.000    22110051.057    89028110.365 9        55.500    22110053.267    86764712.564 9        55.250    22110055.577   116189210.551 8        50.000  
C23  26052316.152   135661263.062 6        39.750    26052308.902   103568371.944 8        48.750    26052305.342   110235850.808 7        41.500    26052308.522   104901869.637 7        46.500    26052310.562   102234888.729 7        45.500    26052313.102   136905864.018 6        38.750  
C29  22619409.529   117785214.345 8        48.250    22619405.009    89921210.003 9        54.750    22619405.079    95710133.446 8        51.000    22619404.139    91078993.101 8        52.750    22619406.959    88763441.380 8        52.750    22619407.149   118865807.902 7        47.250  
C30  25476227.631   132661376.808 6        39.500    25476227.771   101278171.847 7        47.000    25476227.121   107798236.002 7        42.250    25476227.241   102582177.586 7        44.500    25476229.871    99974174.580 7        44.250    25476223.861   133878436.235 6        38.750  
C32  25371150.031   132114277.852 7        42.250    25371151.291   100860542.720 8        49.250    25371149.101   107353698.693 7        44.000    25371150.961   102159174.078 7        47.000    25371153.521    99561925.835 7        46.250    25371147.221   133326311.408 7        41.750  
C35  23592262.947   122851160.046 7        46.500    23592259.947    93788708.745 8        53.250    23592258.937    99826599.353 8        49.000    23592259.487    94996287.821 8        51.000    23592261.467    92581141.147 8        51.000    23592259.877   123978200.749 7        45.000  
C37  24978451.658   130069397.788 6        41.000    24978453.898    99299402.931 8        49.000    24978451.788   105692063.662 7        44.750    24978453.268   100577935.917 7        46.000    24978455.858    98020888.422 7        46.500    24978449.218   131262663.938 6        41.250  
C57  28784230.885   149887051.920 6        40.500                                                    28784351.745   121796027.888 7        44.500                                                                                                                                                  
> 2021 06 24 00 09 30.0000000  0 36      -0.000477866650
G05  22927970.023   120487319.484 7        42.250    22927970.373   120487318.486 7        43.000    22927968.473    93886239.978 7        43.000    22927968.423    93886230.981 7        43.000                                                                                                  
G10  23984684.576   126040457.045 6        38.750    23984685.526   126040382.033 4        25.000    23984686.926    98213301.908 6        40.250    23984686.966    98213289.902 4        25.000    23984685.056    94121070.761 7        46.250                                                  
G13  22098434.548   116128098.049 7        46.000    22098434.548   116128088.055 5        34.000                                                    22098432.528    90489429.067 5        34.000                                                                                                  
G15  20147181.210   105874233.819 8        49.750    20147181.360   105874221.815 7        45.250    20147179.050    82499425.26218        51.000    20147178.790    82499412.266 7        45.250                                                                                                  
G18  20087296.555   105559487.029 8        49.500    20087296.885   105559486.030 7        45.000    20087294.885    82254157.854 9        55.000    20087294.905    82254153.859 7        45.000    20087299.065    78826898.55119        58.500    20087296.635   105559484.03218        50.000  
G20  23240783.457   122131153.838 6        40.000    23240783.207   122131165.841 4        24.250                                                    23240783.397    95167146.79614        24.250                                                                                                  
G23  21324168.699   112059312.972 7        46.250    21324168.899   112059307.972 6        39.750    21324167.149    87318956.152 8        49.750    21324167.249    87318954.147 6        39.750    21324171.389    83680669.157 9        54.500    21324168.499   112059313.980 8        47.750  
G24  21825217.111   114692421.389 7        44.000    21825217.041   114692338.388 6        37.000    21825218.091    89370677.074 8        47.750    21825218.451    89370666.071 6        37.000    21825218.651    85646904.639 8        52.750                                                  
G27  24627805.842   129419998.999 5        34.750    24627805.112   129419990.979 3        21.250    24627806.722   100846752.837 6        37.750    24627807.582   100846747.850 3        21.250    24627807.192    96644809.62617        44.000                                                  
G29  23733067.111   124718087.016 6        39.750    23733067.571   124718086.024 4        27.000    23733067.831    97182916.140 6        39.500    23733067.801    97182920.149 4        27.000                                                                                                  
R01  22863692.787   122219479.104 6        40.500    22863692.217   122219559.109 6        40.250    22863694.857    95059599.671 6        38.250    22863697.607    95059648.671 6        36.750                                                  
R06  23646700.361   126183327.392 5        35.000    23646700.891   126183336.400 5        34.750                                                                                                                                                  
R07  20233520.847   108311693.445 8        51.000    20233520.907   108311701.453 8        51.250    20233521.237    84242452.88018        50.250    20233521.107    84242444.872 8        49.500                                                  
R08  20010716.943   107156561.316 8        50.000    20010718.273   107156580.329 8        50.250    20010716.183    83344044.231 8        50.500    20010716.743    83344031.225 8        50.000                                                  
R09  22877562.902   122164924.143 7        44.000    22877563.702   122164950.149 7        44.500    22877565.272    95017188.979 6        41.000    22877565.342    95017180.978 6        39.750    22877552.592    91728171.663 7        45.000  
R16  23068363.774   123227080.122 6        39.250    23068364.354   123227084.131 6        39.000    23068366.904    95843295.966 6        36.500    23068367.754    95843285.984 5        34.500                                                  
R21  23860070.831   127679999.861 5        33.250    23860066.641   127680017.847 5        31.250    23860073.761    99306659.201 6        36.250    23860070.571    99306654.204 5        33.750    23860056.501    95667463.28816        35.500  
R22  20200696.886   107832709.672 7        42.000    20200697.186   107832704.670 7        41.750    20200698.856    83869883.142 6        38.500    20200697.666    83869876.137 6        37.500                                                  
R23  20350735.762   108862801.630 8        50.500    20350735.632   108862749.624 8        50.500                                                                                                                                                  
R24  23527375.358   125811476.863 7        42.250    23527376.088   125811476.868 7        42.000    23527375.858    97853370.299 6        40.500    23527375.998    97853369.295 6        39.500                                                  
E04  24737500.679   129996516.739 8        48.500    24737500.149    98341546.213 9        56.000    24737499.129   105516671.946 8        50.500    24737499.179    99607744.165 9        54.250    24737501.939    97075346.308 9        53.750  
E11  23512061.306   123556732.860 7        44.000    23512058.386    93469872.212 8        50.750    23512056.786   100289561.383 7        46.000    23512057.166    94673347.422 8        48.250    23512060.206    92266399.050 8        48.250  
E12  21716172.158   114119285.816 8        47.500    21716169.248    86330512.076 9        56.500    21716167.328    92629298.174 8        52.000    21716168.448    87442059.964 9        54.750    21716170.768    85218958.235 9        53.750  
E18  23512278.472   123557844.856 7        44.500    23512280.072    93470704.642 8        52.000    23512277.472   100290455.471 7        46.000    23512278.992    94674189.202 8        49.750    23512281.922    92267218.129 8        49.500  
E19  23325486.134   122576327.266 8        47.500    23325484.504    92728198.441 9        54.250    23325483.574    99493772.660 8        49.250    23325483.704    93922125.789 8        52.500    23325486.354    91534277.13718        51.250  
E33  25901317.894   136112354.991 7        44.750    25901318.574   102968130.241 8        52.250    25901317.934   110480823.769 7        46.500    25901317.344   104293899.715 8        49.750    25901320.414   101642360.811 8        49.750  
C19  22561877.660   117485696.602 8        48.250    22561873.360    89692573.818 9        55.250    22561869.410    95466754.725 8        51.750    22561872.870    90847406.136 8        53.250    22561875.170    88537744.978 8        53.250    22561874.210   118563543.658 8        47.500  
C20  22114671.275   115156975.364 8        50.750    22114664.285    87914734.721 9        57.250    22114660.025    93574465.023 8        53.000    22114663.685    89046683.457 9        55.750    22114665.855    86782813.461 9        55.250    22114668.125   116213450.017 8        50.250  
C23  26054737.084   135673876.271 6        39.000    26054731.034   103578001.310 8        48.500    26054727.554   110246100.089 7        41.500    26054730.654   104911622.979 7        46.250    26054732.744   102244394.111 7        45.750    26054734.924   136918592.959 6        38.250  
C29  22630663.315   117843813.035 8        48.750    22630658.315    89965946.184 9        55.000    22630658.415    95757749.653 8        51.250    22630657.565    91124305.287 8        52.750    22630660.205    88807601.556 8        52.750    22630660.385   118924944.207 7        47.000  
C30  25495980.451   132764236.011 6        38.250    25495980.921   101356697.938 7        47.000    25495980.421   107881817.449 7        42.750    25495980.791   102661714.752 7        44.750    25495983.201   100051689.59617        44.000    25495976.761   133982239.08316        37.750  
C32  25384988.108   132186345.504 7        41.750    25384991.288   100915561.567 8        49.000    25384988.518   107412259.531 7        43.500    25384990.608   102214901.334 7        46.250    25384993.108    99616236.276 7        46.250    25384987.518   133399040.267 7        42.250  
C35  23586613.596   122821744.775 7        46.000    23586611.026    93766252.127 8        53.000    23586610.136    99802697.035 8        49.250    23586610.536    94973542.062 8        50.750    23586612.386    92558973.668 8        50.750    23586611.036   123948515.61817        44.750  
C37  24968122.273   130015613.175 7        41.500    24968124.973    99258341.99218        49.000    24968122.793   105648359.320 7        44.750    24968124.693   100536346.28417        46.250    24968126.853    97980356.18117        46.750    24968120.433   131208385.88816        41.000  
C46                                                                                                                                                                                                  25990371.389   101991801.38315        33.250                                                  
C57  28771312.479   149819784.224 6        40.500                                                    28771433.889   121741367.411 7        44.250                                                                                                                                                  
> 2021 06 24 00 10  0.0000000  0 36      -0.000477865266
G05  22942317.621   120562714.771 7        43.000    22942317.461   120562713.778 7        43.000    22942315.671    93944989.500 7        42.750    22942316.021    93944980.504 7        43.000                                                                                                  
G10  23969903.383   125962778.157 6        38.750    23969902.853   125962703.152 4        24.750    23969904.113    98152772.981 6        40.500    23969904.343    98152760.961 4        24.750    23969903.613    94063063.877 7        46.500                                                  
G13  22115314.800   116216805.266 7        45.750    22115314.480   116216795.256 5        33.750                                                    22115313.060    90558551.538 5        33.750                                                                                                  
G15  20155747.286   105919248.851 8        49.750    20155747.446   105919236.848 7        45.000    20155745.306    82534501.897 8        50.500    20155744.756    82534488.903 7        45.000                                                                                                  
G18  20082980.508   105536806.197 8        48.750    20082980.668   105536805.198 7        45.000    20082978.898    82236484.482 9        55.000    20082978.888    82236480.486 7        45.000    20082982.988    78809961.570 9        58.250    20082980.338   105536803.209 8        49.750  
G20  23255854.121   122210348.242 6        40.750    23255853.791   122210360.244 4        25.500                                                    23255853.121    95228856.690 4        25.500                                                                                                  
G23  21314055.371   112006167.083 7        46.250    21314055.491   112006162.091 6        39.750    21314053.951    87277543.787 8        49.500    21314053.911    87277541.789 6        39.750    21314058.201    83640982.313 9        54.750    21314055.281   112006168.088 8        48.000  
G24  21808936.168   114606866.822 7        43.250    21808936.158   114606783.820 6        36.500    21808937.538    89304011.226 8        47.750    21808937.868    89304000.223 6        36.500    21808937.728    85583016.559 8        52.250                                                  
G27  24618256.532   129369818.019 5        35.250    24618256.022   129369810.048 3        18.500    24618257.492   100807650.815 6        38.000    24618258.422   100807645.835 3        18.500    24618258.552    96607336.821 7        45.250                                                  
G29  23752840.002   124821990.621 6        40.000    23752839.942   124821989.607 4        28.000    23752839.822    97263879.892 6        39.750    23752840.242    97263883.910 4        28.000                                                                                                  
R01  22848015.312   122135672.882 6        41.000    22848014.982   122135752.886 6        40.500    22848018.672    94994417.114 6        37.500    22848019.002    94994466.116 6        36.000                                                  
R06  23664751.229   126279663.531 5        34.500    23664753.759   126279672.530 5        34.000                                                                                                                                                  
R07  20244312.527   108369460.881 8        51.250    20244312.477   108369468.886 8        51.250    20244312.837    84287383.072 8        50.500    20244312.877    84287375.070 8        49.500                                                  
R08  20005760.665   107130018.097 8        49.750    20005761.095   107130037.109 8        49.750    20005760.025    83323399.505 8        50.750    20005760.045    83323386.505 8        49.750                                                  
R09  22863119.517   122087787.426 7        45.500    22863118.907   122087813.418 7        45.250    22863119.967    94957193.759 6        40.750    22863120.607    94957185.762 6        39.500    22863106.787    91670253.217 7        44.500  
R16  23069690.641   123234161.745 6        40.750    23069690.941   123234165.743 6        39.750    23069691.141    95848803.925 5        34.500    23069690.411    95848793.907 5        33.000                                                  
R21  23886016.129   127818864.282 5        33.000    23886017.809   127818882.269 5        31.500    23886024.929    99414664.743 5        35.000    23886020.959    99414659.742 5        33.250    23886006.979    95771510.859 5        34.500  
R22  20217835.738   107924190.393 7        42.000    20217834.848   107924185.392 7        41.750    20217837.598    83941034.778 6        38.750    20217835.888    83941027.772 6        37.750                                                  
R23  20338630.465   108798047.116 8        50.250    20338630.335   108797995.118 8        50.500                                                                                                                                                  
R24  23504503.412   125689162.645 7        44.000    23504502.292   125689162.645 7        42.500    23504501.722    97758237.059 6        39.750    23504503.082    97758236.061 6        39.250                                                  
E04  24728218.640   129947739.832 8        48.250    24728218.210    98304646.830 9        56.000    24728217.310   105477080.319 8        50.500    24728217.250    99570369.679 9        54.250    24728219.900    97038922.026 9        53.500  
E11  23499969.114   123493189.403 7        44.000    23499966.444    93421802.020 8        50.750    23499965.144   100237983.921 7        46.000    23499965.464    94624658.300 8        48.000    23499968.254    92218947.787 8        48.000  
E12  21719749.970   114138088.095 8        47.750    21719747.210    86344735.864 9        56.250    21719745.210    92644559.752 8        52.000    21719746.490    87456466.890 9        54.750    21719748.680    85232998.884 9        53.750  
E18  23547074.282   123740698.301 7        44.000    23547076.022    93609032.003 8        52.000    23547073.362   100438875.419 7        45.750    23547075.142    94814297.597 8        49.750    23547077.772    92403764.446 8        49.250  
E19  23331105.442   122605858.705 7        47.250    23331104.162    92750538.777 9        54.250    23331103.262    99517742.980 8        49.250    23331103.372    93944753.770 8        52.500    23331105.962    91556329.828 8        51.500  
E33  25917374.407   136196730.389 7        45.500    25917374.657   103031959.646 8        52.250    25917374.257   110549310.266 7        47.000    25917373.767   104358550.951 8        50.000    25917376.627   101705368.382 8        49.250  
C19  22553469.606   117441914.879 8        48.250    22553465.516    89659149.384 9        55.000    22553461.656    95431178.496 8        51.750    22553465.086    90813551.344 8        53.250    22553467.326    88504750.903 8        53.000    22553466.296   118519360.253 8        47.500  
C20  22119317.651   115181168.512 8        50.750    22119310.331    87933204.583 9        57.000    22119306.101    93594123.935 8        53.000    22119309.731    89065391.130 9        55.250    22119311.961    86801045.515 9        55.250    22119314.241   116237865.127 8        50.000  
C23  26057248.001   135686946.955 6        40.250    26057241.181   103587979.895 8        48.750    26057237.501   110256721.085 7        42.000    26057240.631   104921730.050 7        46.000    26057243.241   102254244.217 7        46.500    26057244.991   136931783.517 6        39.500  
C29  22641993.195   117902812.143 8        48.500    22641988.535    90010988.052 9        55.000    22641988.545    95805691.223 8        51.000    22641987.625    91169927.100 8        52.750    22641990.445    88852063.480 8        52.500    22641990.655   118984484.587 7        47.250  
C30  25515731.633   132867093.939 6        38.250    25515733.603   101435223.047 7        46.250    25515733.533   107965397.855 7        43.250    25515733.363   102741250.912 7        44.000    25515736.033   100129203.651 7        43.000    25515729.133   134086040.625 6        37.000  
C32  25398829.271   132258421.025 6        41.000    25398832.611   100970586.404 8        49.000    25398829.621   107470826.782 7        43.500    25398832.181   102270634.646 7        46.500    25398834.641    99670552.640 7        46.250    25398828.891   133471777.017 7        41.750  
C35  23581058.227   122792814.336 7        46.250    23581055.187    93744165.659 8        53.250    23581054.337    99779188.687 8        49.250    23581054.867    94951171.218 8        51.000    23581056.807    92537171.579 8        50.750    23581054.817   123919319.761 7        44.500  
C37  24957853.497   129962141.418 6        41.250    24957856.247    99217519.893 8        49.000    24957854.217   105604909.160 7        45.250    24957855.587   100494998.581 7        46.250    24957857.967    97940059.685 7        46.250    24957851.537   131154423.564 6        41.000  
C46                                                  25973564.961   103255314.16316        39.500    25973564.851   109902659.61315        32.000    25973563.651   104584782.31115        35.000    25973567.421   101925856.490 6        39.250                                                  
C57  28758464.569   149752878.014 6        40.750                                                    28758584.869   121687000.648 7        43.500                                                                                                                                                  
> 2021 06 24 00 10 30.0000000  0 36      -0.000477865931
G05  22956687.266   120638227.718 7        42.750    22956687.006   120638226.731 7        42.750    22956686.456    94003830.715 7        44.000    22956686.026    94003821.716 7        42.750                                                                                                  
G10  23955126.117   125885122.895 6        38.000    23955125.457   125885047.888 4        25.750    23955126.907    98092262.454 6        41.250    23955127.617    98092250.457 4        25.750    23955126.327    94005074.628 7        46.750                                                  
G13  22132244.006   116305769.855 7        45.750    22132244.226   116305759.858 5        33.750                                                    22132242.546    90627874.565 5        33.750                                                                                                  
G15  20164394.988   105964692.287 8        50.250    20164395.068   105964680.284 7        45.250    20164392.728    82569912.354 8        50.500    20164392.438    82569899.360 7        45.250                                                                                                  
G18  20078762.859   105514642.744 8        49.500    20078763.089   105514641.750 7        45.250    20078761.309    82219214.267 9        55.250    20078761.449    82219210.271 7        45.250    20078765.459    78793410.947 9        58.500    20078762.779   105514639.751 8        50.250  
G20  23270951.403   122289683.050 6        40.500    23270950.683   122289695.057 4        24.500                                                    23270950.413    95290675.989 4        24.500                                                                                                  
G23  21303974.211   111953188.951 7        46.750    21303974.101   111953183.955 6        40.000    21303972.501    87236262.141 8        49.500    21303972.521    87236260.139 6        40.000    21303976.721    83601420.733 9        54.750    21303973.991   111953189.947 8        48.000  
G24  21792725.047   114521674.800 7        44.000    21792724.537   114521591.790 6        36.500    21792725.937    89237627.877 7        47.250    21792725.787    89237616.872 6        36.500    21792726.517    85519399.201 8        52.750                                                  
G27  24608802.856   129320138.031 6        36.000    24608803.126   129320130.021 3        21.250    24608805.176   100768939.120 6        38.750    24608804.526   100768934.137 3        21.250    24608804.656    96570238.124 7        45.500                                                  
G29  23772625.759   124925971.116 6        38.250    23772626.469   124925970.113 4        27.500    23772627.229    97344903.569 6        40.500    23772627.499    97344907.573 4        27.500                                                                                                  
R01  22832375.058   122052071.868 6        40.500    22832374.948   122052151.872 6        40.250    22832377.058    94929394.156 6        36.750    22832379.618    94929443.155 5        35.250                                                  
R06  23682790.885   126375928.343 5        32.250    23682790.955   126375937.347 5        32.250                                                                                                                                                  
R07  20255143.119   108427437.915 8        51.500    20255143.269   108427445.921 8        51.500    20255143.499    84332476.299 8        50.500    20255143.139    84332468.296 8        49.250                                                  
R08  20000870.209   107103829.463 8        50.000    20000870.479   107103848.474 8        49.750    20000869.309    83303030.570 8        50.750    20000869.599    83303017.571 8        49.750                                                  
R09  22848754.829   122011083.179 7        46.000    22848755.109   122011109.172 7        45.750    22848756.539    94897534.937 7        41.750    22848756.839    94897526.941 6        40.000    22848742.569    91612659.539 7        44.250  
R16  23071153.476   123241975.137 6        41.250    23071153.626   123241979.137 6        40.000    23071154.936    95854881.018 6        36.250    23071153.786    95854871.013 5        34.000                                                  
R21  23911972.182   127957761.466 5        32.500    23911974.972   127957779.493 5        31.750    23911980.122    99522695.848 5        32.500    23911977.732    99522690.843 5        31.750    23911961.962    95875583.039 5        32.500  
R22  20235084.964   108016268.935 7        42.000    20235084.494   108016263.934 7        41.750    20235086.404    84012651.379 6        38.250    20235085.264    84012644.375 6        37.250                                                  
R23  20326657.340   108733998.573 8        50.750    20326656.980   108733946.571 8        50.500                                                                                                                                                  
R24  23481673.824   125567091.097 7        43.000    23481673.484   125567091.095 7        42.250    23481674.974    97663292.551 6        40.000    23481674.664    97663291.538 6        38.750                                                  
E04  24718980.087   129899190.008 8        48.500    24718979.487    98267919.222 9        56.000    24718978.507   105437673.010 8        50.750    24718978.487    99533169.181 9        54.250    24718981.157    97002667.307 9        53.500  
E11  23487925.163   123429895.683 7        44.750    23487922.003    93373920.750 8        50.500    23487920.463   100186609.154 7        45.500    23487920.713    94576160.529 8        48.000    23487923.903    92171683.016 8        48.250  
E12  21723404.509   114157292.952 8        47.750    21723401.779    86359264.206 9        56.500    21723399.749    92660148.102 8        52.000    21723401.049    87471182.291 9        55.000    21723403.249    85247340.165 9        53.500  
E18  23581893.861   123923680.106 7        44.000    23581896.341    93747456.472 8        52.000    23581893.201   100587399.558 7        45.000    23581895.351    94954504.365 8        49.750    23581898.361    92540406.622 8        49.000  
E19  23336765.551   122635602.966 8        47.500    23336764.321    92773040.114 9        54.250    23336763.391    99541886.046 8        49.250    23336763.541    93967544.823 8        52.750    23336766.131    91578541.449 8        51.250  
E33  25933466.379   136281294.495 7        45.500    25933466.679   103095931.803 8        52.000    25933466.039   110617949.925 7        46.500    25933465.809   104423346.786 8        50.000    25933468.529   101768516.860 8        49.000  
C19  22545095.182   117398306.025 8        48.250    22545090.872    89625856.934 9        55.500    22545086.952    95395742.757 8        51.500    22545090.592    90779830.234 9        53.500    22545092.692    88471887.114 8        53.250    22545091.672   118475351.334 8        47.500  
C20  22123996.509   115205535.098 8        50.750    22123989.689    87951806.848 9        57.500    22123985.429    93613923.772 8        53.250    22123989.119    89084232.909 9        55.500    22123991.319    86819408.265 9        55.500    22123993.559   116262455.258 8        50.250  
C23  26059847.796   135700474.966 6        41.000    26059839.176   103598307.671 8        48.750    26059835.776   110267713.730 7        42.000    26059838.506   104932190.803 7        45.750    26059841.166   102264439.014 7        46.750    26059843.696   136945435.676 6        39.750  
C29  22653399.879   117962209.760 8        48.750    22653395.289    90056334.161 9        55.250    22653395.299    95853956.623 8        51.000    22653394.449    91215857.061 8        53.000    22653397.249    88896825.731 8        52.750    22653397.139   119044427.144 7        47.000  
C30  25535483.940   132969948.425 6        38.000    25535485.850   101513745.530 7        45.500    25535485.750   108048975.447 7        43.250    25535485.420   102820784.418 7        43.000    25535488.250   100206715.110 7        42.250    25535481.540   134189838.749 6        37.000  
C32  25412673.920   132330504.043 7        42.000    25412675.490   101025616.981 8        49.000    25412672.540   107529400.105 7        43.500    25412675.110   102326373.767 7        46.500    25412677.550    99724874.662 7        46.000    25412671.650   133544521.355 7        42.000  
C35  23575595.100   122764369.650 7        45.750    23575592.660    93722450.018 8        53.250    23575591.910    99756075.045 8        49.500    23575592.210    94929175.974 8        50.750    23575594.390    92515735.540 8        51.000    23575592.530   123890614.117 7        44.750  
C37  24947646.009   129908984.686 7        42.500    24947648.029    99176938.303 8        49.000    24947645.929   105561715.010 7        45.250    24947647.649   100453894.478 7        46.500    24947649.739    97900000.604 7        46.250    24947643.049   131100779.145 6        41.250  
C46  25956741.421   135163563.83714        28.500    25956745.741   103188451.647 7        41.500    25956745.701   109831493.196 5        35.000    25956745.201   104517058.907 6        38.250    25956748.101   101859854.864 6        39.000                                                  
C57  28745685.713   149686335.267 6        40.500                                                    28745806.133   121632929.241 7        43.750                                                                                                                                                  
> 2021 06 24 00 11  0.0000000  0 36      -0.000477864289
G05  22971078.920   120713858.815 7        42.500    22971079.210   120713857.825 7        42.500    22971078.790    94062763.971 7        43.750    22971078.230    94062754.981 7        42.500                                                                                                  
G10  23940354.160   125807491.486 6        38.500    23940353.570   125807416.490 4        25.000    23940354.390    98031770.533 7        41.500    23940354.580    98031758.519 4        25.000    23940353.210    93947103.206 7        46.500                                                  
G13  22149221.957   116394989.594 7        45.250    22149222.027   116394979.594 5        33.750                                                    22149220.847    90697396.421 5        33.750                                                                                                  
G15  20173123.632   106010561.971 8        49.750    20173123.792   106010549.972 7        45.000    20173121.732    82605654.957 8        50.750    20173121.312    82605641.957 7        45.000                                                                                                  
G18  20074644.262   105492998.207 8        48.750    20074644.312   105492997.217 7        45.250    20074642.582    82202348.399 9        55.000    20074642.612    82202344.403 7        45.250    20074646.642    78777247.823 9        58.500    20074644.082   105492995.215 8        50.000  
G20  23286075.969   122369157.584 6        40.250    23286074.299   122369169.595 4        23.750                                                    23286073.629    95352604.168 4        23.750                                                                                                  
G23  21293924.715   111900379.231 7        46.250    21293924.805   111900374.230 6        39.750    21293923.245    87195111.719 8        49.750    21293923.315    87195109.720 6        39.750    21293927.345    83561984.919 9        54.750    21293924.565   111900380.227 8        48.000  
G24  21776582.310   114436848.476 7        43.750    21776582.490   114436765.471 6        36.500    21776583.470    89171529.496 7        46.750    21776584.350    89171518.497 6        36.500    21776584.510    85456054.929 8        52.750                                                  
G27  24599444.820   129270960.613 6        37.000    24599443.890   129270952.614 3        22.750    24599446.060   100730619.064 6        39.500    24599446.820   100730614.064 3        22.750    24599446.240    96533514.728 7        45.250                                                  
G29  23792427.672   125030025.686 6        38.000    23792427.132   125030024.705 4        26.750    23792428.302    97425984.945 6        39.750    23792427.752    97425988.948 4        26.750                                                                                                  
R01  22816773.682   121968675.840 6        41.250    22816774.662   121968755.853 6        40.750    22816777.802    94864530.638 6        36.500    22816778.472    94864579.647 5        34.500                                                  
R06  23700818.306   126472121.209 5        33.500    23700818.506   126472130.224 5        33.500                                                                                                                                                  
R07  20266012.448   108485622.990 8        51.000    20266012.508   108485630.999 8        51.000    20266012.678    84377731.337 8        50.250    20266012.738    84377723.333 8        49.250                                                  
R08  19996045.568   107077994.332 8        49.750    19996045.788   107078013.341 8        49.500    19996044.638    83282936.592 8        50.750    19996045.028    83282923.589 8        50.000                                                  
R09  22834472.954   121934815.704 7        46.250    22834472.914   121934841.709 7        45.500    22834474.324    94838215.871 7        41.750    22834473.564    94838207.868 6        40.000    22834460.584    91555393.776 7        44.250  
R16  23072752.657   123250520.586 6        40.000    23072753.197   123250524.583 6        39.500    23072751.547    95861527.475 5        34.500    23072752.867    95861517.489 5        33.500                                                  
R21  23937934.025   128096688.180 5        31.750    23937936.055   128096706.210 5        31.000    23937936.705    99630749.914 5        31.000    23937937.505    99630744.92915        29.750    23937924.964    95979677.337 5        32.500  
R22  20252444.298   108108941.792 7        41.500    20252444.998   108108936.793 7        41.750    20252447.088    84084730.244 6        38.750    20252445.928    84084723.243 6        37.500                                                  
R23  20314816.598   108670659.651 8        50.250    20314816.848   108670607.652 8        50.500                                                                                                                                                  
R24  23458891.878   125445266.191 7        43.000    23458891.168   125445266.205 7        42.750    23458892.428    97568539.854 6        39.250    23458892.708    97568538.858 6        38.250                                                  
E04  24709784.595   129850867.330 8        48.500    24709783.995    98231363.452 9        56.000    24709782.945   105398450.076 8        49.250    24709783.045    99496142.738 9        54.250    24709785.755    96966582.211 9        53.500  
E11  23475928.632   123366853.616 7        44.000    23475925.422    93326229.850 8        50.500    23475923.952   100135438.664 7        45.750    23475924.042    94527855.574 8        47.750    23475927.282    92124606.168 8        48.000  
E12  21727135.817   114176900.529 8        47.750    21727132.967    86374097.201 9        56.250    21727130.877    92676063.339 8        51.000    21727132.227    87486206.271 9        54.750    21727134.437    85261982.178 9        53.500  
E18  23616737.965   124106784.650 7        43.750    23616739.955    93885973.800 8        51.750    23616737.145   100736023.337 7        44.750    23616739.175    95094805.175 8        49.750    23616741.825    92677140.465 8        48.750  
E19  23342466.084   122665558.970 8        47.500    23342464.774    92795701.626 9        54.250    23342463.904    99566200.982 8        49.250    23342463.914    93990498.119 8        52.500    23342466.514    91600911.178 8        51.250  
E33  25949593.993   136366046.085 7        45.000    25949594.433   103160045.806 8        52.000    25949593.553   110686741.785 7        45.500    25949593.413   104488286.293 8        49.750    25949596.143   101831805.358 8        49.000  
C19  22536754.285   117354869.881 8        48.500    22536749.405    89592696.332 9        55.250    22536745.545    95360447.344 8        51.750    22536749.095    90746242.671 8        53.250    22536751.275    88439153.474 9        53.500    22536750.165   118431516.693 7        47.000  
C20  22128709.416   115230074.502 8        50.750    22128702.226    87970541.051 9        56.750    22128698.016    93633864.041 8        53.000    22128701.656    89103208.327 9        55.250    22128703.886    86837901.253 9        55.250    22128706.216   116287219.795 8        49.750  
C23  26062532.263   135714460.384 6        40.500    26062524.723   103608984.624 8        48.750    26062521.743   110279078.018 7        42.500    26062524.223   104943005.221 7        46.000    26062527.243   102274978.501 7        46.500    26062529.113   136959549.385 6        39.250  
C29  22664882.562   118022004.026 8        48.500    22664878.182    90101983.086 9        54.750    22664878.212    95902544.330 8        51.250    22664877.312    91262093.744 8        52.750    22664880.052    88941886.900 8        52.750    22664880.362   119104769.985 7        47.000  
C30  25555235.279   133072797.338 6        38.750    25555236.819   101592263.792 7        44.500    25555236.359   108132548.528 7        42.500    25555236.459   102900313.633 7        42.750    25555238.439   100284222.420 6        41.000    25555232.569   134293631.239 6        37.250  
C32  25426518.334   132402594.318 7        42.500    25426519.744   101080653.078 8        48.750    25426517.034   107587979.331 7        43.750    25426519.004   102382118.497 7        46.000    25426521.604    99779202.136 7        46.250    25426515.734   133617272.991 7        41.750  
C35  23570226.655   122736411.588 7        46.250    23570223.605    93701105.901 8        53.000    23570222.675    99733356.837 8        49.250    23570223.425    94907557.042 8        51.000    23570225.055    92494666.239 8        50.500    23570223.615   123862399.567 7        44.750  
C37  24937498.657   129856145.192 7        42.000    24937500.717    99136598.912 8        49.000    24937498.657   105518778.649 7        45.250    24937499.947   100413035.690 7        46.250    24937502.677    97860180.609 7        46.500    24937496.157   131047454.906 7        41.750  
C46  25939907.863   135075909.436 5        29.750    25939912.733   103121533.414 7        42.500    25939912.253   109760266.923 6        36.750    25939911.783   104449279.058 6        39.500    25939914.733   101793798.231 6        40.250                                                  
C57  28732976.580   149620157.930 6        40.500                                                    28733097.280   121579154.760 7        43.000                                                                                                                                                  
> 2021 06 24 00 11 30.0000000  0 36      -0.000477865838
G05  22985493.176   120789607.139 6        41.250    22985493.346   120789606.140 7        42.000    22985492.746    94121788.600 7        43.000    22985492.436    94121779.589 7        42.000                                                                                                  
G10  23925585.026   125729884.103 6        37.750    23925585.356   125729809.106 4        25.250    23925586.016    97971297.317 7        41.500    23925586.406    97971285.308 4        25.250    23925584.546    93889149.734 7        46.500                                                  
G13  22166247.991   116484461.493 7        45.500    22166248.021   116484451.493 5        33.250                                                    22166246.131    90767114.756 5        33.250                                                                                                  
G15  20181933.135   106056856.007 8        49.500    20181933.305   106056844.002 7        45.250    20181931.075    82641728.211 8        50.500    20181930.825    82641715.216 7        45.250                                                                                                  
G18  20070624.433   105471874.005 8        49.500    20070624.543   105471873.008 7        45.250    20070622.693    82185887.976 9        55.000    20070622.813    82185883.981 7        45.250    20070626.903    78761473.251 9        58.750    20070624.193   105471871.012 8        50.250  
G20  23301225.561   122448772.378 6        40.000    23301224.131   122448784.369 4        24.250                                                    23301224.501    95414641.632 4        24.250                                                                                                  
G23  21283907.403   111847738.419 7        46.750    21283907.683   111847733.417 6        40.000    21283905.743    87154092.915 8        49.500    21283906.073    87154090.918 6        40.000    21283910.273    83522675.234 9        55.000    21283907.443   111847739.424 8        48.000  
G24  21760511.012   114352390.965 7        44.750    21760511.202   114352307.959 6        37.000    21760511.812    89105718.492 7        47.000    21760511.962    89105707.491 6        37.000    21760512.672    85392986.067 8        53.250                                                  
G27  24590182.984   129222287.236 6        37.500    24590182.064   129222279.242 3        23.000    24590184.484   100692691.746 6        39.250    24590185.034   100692686.743 3        23.000    24590183.984    96497167.733 7        45.250                                                  
G29  23812242.052   125134150.918 6        38.750    23812242.102   125134149.920 4        27.250    23812243.202    97507121.384 6        40.000    23812242.472    97507125.380 4        27.250                                                                                                  
R01  22801211.961   121885485.014 6        41.250    22801212.171   121885565.022 6        40.500    22801215.151    94799826.696 6        35.500    22801215.021    94799875.697 5        33.500                                                  
R06  23718831.837   126568242.133 5        35.000    23718833.987   126568251.126 5        34.750                                                                                                                                                  
R07  20276920.512   108544013.825 8        51.250    20276920.422   108544021.831 8        51.250    20276920.832    84423146.410 8        50.500    20276920.802    84423138.406 8        49.500                                                  
R08  19991287.074   107052511.799 8        49.750    19991287.284   107052530.809 8        50.000    19991286.394    83263116.848 8        50.750    19991286.214    83263103.845 8        49.750                                                  
R09  22820271.981   121858988.893 7        46.000    22820272.091   121859014.907 7        45.750    22820274.141    94779239.516 7        42.250    22820274.431    94779231.519 6        40.750    22820260.171    91498458.901 7        44.500  
R16  23074487.623   123259798.389 6        39.750    23074489.663   123259802.384 6        39.250    23074492.043    95868743.511 6        35.750    23074489.593    95868733.510 5        34.000                                                  
R21  23963900.516   128235640.488 5        31.250    23963904.456   128235658.516 5        31.000    23963904.736    99738823.906 5        30.000                                                    23963891.106    96083790.789 5        31.500  
R22  20269917.477   108202205.894 7        42.000    20269916.397   108202200.901 7        41.750    20269919.357    84157268.955 6        38.000    20269917.607    84157261.952 6        37.500                                                  
R23  20303109.271   108608033.325 8        50.250    20303108.771   108607981.326 8        50.500                                                                                                                                                  
R24  23436157.004   125323691.772 7        43.250    23436156.054   125323691.773 7        43.750    23436156.804    97473982.000 6        39.000    23436156.984    97473981.003 6        38.500                                                  
E04  24700632.295   129802771.737 8        48.250    24700631.695    98194979.469 9        56.000    24700630.685   105359411.454 8        50.000    24700630.755    99459290.287 9        54.000    24700633.425    96930666.692 9        53.500  
E11  23463979.697   123304064.784 7        44.250    23463977.037    93278730.492 8        50.500    23463975.657   100084473.691 7        46.000    23463976.067    94479744.645 8        47.750    23463978.787    92077718.395 8        47.750  
E12  21730943.416   114196910.816 8        47.750    21730940.796    86389234.845 9        56.250    21730938.736    92692305.453 8        52.250    21730940.116    87501538.820 9        54.750    21730942.326    85276924.915 9        53.500  
E18  23651604.622   124290006.399 7        44.500    23651605.952    94024579.783 8        51.500    23651602.752   100884742.242 7        44.750    23651604.782    95235195.791 8        49.250    23651607.952    92813961.815 8        48.500  
E19  23348206.699   122695725.537 8        47.750    23348205.289    92818522.426 9        54.250    23348204.209    99590686.822 8        49.250    23348204.459    94013612.750 8        52.500    23348207.079    91623438.148 8        51.250  
E33  25965757.484   136450983.853 7        45.000    25965757.654   103224300.636 8        52.250    25965756.684   110755684.765 7        46.000    25965756.684   104553368.449 8        50.000    25965759.554   101895232.868 8        49.500  
C19  22528445.455   117311606.206 8        48.250    22528441.085    89559667.397 9        55.250    22528437.225    95325292.074 8        51.750    22528440.765    90712788.471 9        53.500    22528442.855    88406549.802 8        53.250    22528441.655   118387856.109 8        47.500  
C20  22133454.973   115254786.053 8        50.750    22133447.833    87989406.675 9        57.000    22133443.523    93653944.194 8        53.000    22133447.243    89122316.857 9        55.250    22133449.463    86856523.971 9        55.250    22133451.743   116312158.064 8        50.000  
C23  26065305.603   135728903.032 6        39.500    26065298.243   103620010.647 8        48.500    26065294.433   110290813.870 7        41.750    26065297.683   104954173.201 7        46.000    26065300.513   102285862.570 7        46.000    26065302.033   136974124.553 6        39.000  
C29  22676441.686   118082193.054 8        48.500    22676436.896    90147933.386 9        55.000    22676437.106    95951452.816 8        51.000    22676436.076    91308635.684 8        52.750    22676438.636    88987245.564 8        52.500    22676438.896   119165511.200 7        47.250  
C30  25574983.803   133175638.463 6        38.750    25574986.283   101670776.110 7        43.750    25574985.693   108216115.314 6        41.250    25574985.353   102979836.843 6        41.250    25574988.723   100361723.841 6        41.000    25574982.733   134397415.884 6        37.000  
C32  25440364.195   132474691.562 7        42.250    25440365.295   101135694.500 8        48.750    25440362.365   107646564.188 7        43.250    25440364.615   102437868.604 7        46.000    25440367.265    99833534.868 7        46.250    25440361.525   133690031.681 7        42.250  
C35  23564950.989   122708941.009 7        46.000    23564948.149    93680133.927 8        53.250    23564947.359    99711034.746 8        49.500    23564947.869    94886315.040 8        50.750    23564949.829    92473964.293 8        50.750    23564948.349   123834676.966 7        45.250  
C37  24927411.770   129803625.084 7        42.000    24927414.700    99096503.334 8        49.250    24927412.940   105476101.803 7        45.500    24927414.290   100372423.862 7        46.750    24927416.270    97820601.290 7        46.500    24927410.160   130994452.963 7        42.250  
C46  25923061.613   134988184.289 4        29.000    25923065.903   103054561.109 7        43.500    25923065.713   109688983.086 6        37.500    25923064.963   104381444.441 6        41.000    25923067.773   101727688.261 6        40.500                                                  
C57  28720338.997   149554347.900 6        40.250                                                    28720459.267   121525678.733 7        42.750                                                                                                                                                  
> 2021 06 24 00 12  0.0000000  0 36      -0.000477865357
G05  22999929.735   120865472.384 6        40.500    22999930.105   120865471.381 7        41.750    22999928.685    94180904.296 7        42.500    22999928.975    94180895.306 7        41.750                                                                                                  
G10  23910821.285   125652300.943 6        38.000    23910821.045   125652225.959 4        26.000    23910822.255    97910843.008 7        42.000    23910822.915    97910831.006 4        26.000    23910821.425    93831214.357 7        47.250                                                  
G13  22183321.478   116574183.219 7        45.750    22183321.468   116574173.224 5        33.250                                                    22183319.788    90837027.755 5        33.250                                                                                                  
G15  20190822.737   106103572.325 8        49.750    20190823.047   106103560.317 7        45.000    20190821.167    82678130.519 8        50.750    20190820.507    82678117.523 7        45.000                                                                                                  
G18  20066703.901   105451271.601 8        49.250    20066703.951   105451270.609 7        45.000    20066702.351    82169834.153 9        55.250    20066702.311    82169830.160 7        45.000    20066706.311    78746088.339 9        58.500    20066703.731   105451268.605 8        50.000  
G20  23316402.369   122528526.852 6        39.500    23316401.459   122528538.848 3        23.250                                                    23316400.539    95476787.925 3        23.250                                                                                                  
G23  21273922.467   111795267.109 7        46.250    21273922.587   111795262.112 6        40.000    21273921.207    87113206.199 8        50.000    21273920.997    87113204.206 6        40.000    21273925.227    83483492.136 9        54.750    21273922.197   111795268.111 8        47.750  
G24  21744509.951   114268305.422 7        44.750    21744509.961   114268222.424 6        37.000    21744511.361    89040197.377 7        47.000    21744511.381    89040186.367 6        37.000    21744511.861    85330194.989 9        53.500                                                  
G27  24581016.638   129174119.352 6        37.500    24581016.298   129174111.342 3        21.750    24581018.258   100655158.337 6        38.750    24581018.128   100655153.337 3        21.750    24581018.328    96461198.228 7        45.750                                                  
G29  23832069.997   125238343.671 6        39.750    23832069.457   125238342.661 4        28.000    23832069.257    97588310.437 6        39.750    23832070.247    97588314.430 4        28.000                                                                                                  
R01  22785686.948   121802499.629 6        40.250    22785687.298   121802579.659 6        39.500    22785691.248    94735282.584 6        36.250    22785691.888    94735331.592 5        34.500                                                  
R06  23736833.904   126664289.649 5        34.750    23736832.294   126664298.634 5        33.250                                                                                                                                                  
R07  20287866.782   108602608.807 8        51.000    20287866.672   108602616.813 8        51.250    20287866.562    84468720.259 8        50.250    20287866.722    84468712.259 8        49.250                                                  
R08  19986594.160   107027381.262 8        49.750    19986594.270   107027400.273 8        49.750    19986592.850    83243570.881 8        51.000    19986593.260    83243557.881 8        50.000                                                  
R09  22806155.803   121783606.903 7        46.000    22806155.553   121783632.909 7        45.500    22806156.993    94720609.120 6        41.250    22806156.813    94720601.113 6        40.250    22806143.593    91441857.973 7        44.500  
R16  23076362.858   123269808.472 6        39.750    23076364.318   123269812.477 6        39.000    23076363.378    95876529.137 5        35.250    23076362.458    95876519.158 5        33.500                                                  
R21  23989874.125   128374615.120 5        32.250    23989873.385   128374633.133 5        30.500    23989873.025    99846915.236 4        29.000    23989873.705    99846954.19814        28.750    23989863.025    96187920.970 5        32.500  
R22  20287498.713   108296056.952 7        41.500    20287498.383   108296051.950 7        41.500    20287498.413    84230264.181 6        38.500    20287499.913    84230257.178 6        37.250                                                  
R23  20291535.973   108546122.898 8        50.500    20291535.653   108546070.899 8        50.750                                                                                                                                                  
R24  23413469.222   125202371.962 7        44.500    23413469.182   125202371.954 7        44.000    23413468.832    97379622.155 6        38.000    23413470.412    97379621.162 6        37.750                                                  
E04  24691523.333   129754903.155 8        48.500    24691522.583    98158767.201 9        56.000    24691521.473   105320557.097 8        50.250    24691521.583    99422611.773 9        54.250    24691524.303    96894920.677 9        53.750  
E11  23452080.244   123241530.944 7        44.000    23452077.264    93231424.074 8        50.500    23452076.214   100033715.716 7        46.250    23452076.344    94431829.123 8        47.750    23452078.944    92031021.068 8        47.750  
E12  21734828.033   114217323.886 8        47.750    21734825.283    86404677.191 9        56.250    21734823.223    92708874.497 8        50.750    21734824.603    87517179.996 9        54.750    21734826.833    85292168.433 9        53.500  
E18  23686491.577   124473339.799 7        44.250    23686493.127    94163270.249 8        51.250    23686490.917   101033551.774 7        45.500    23686492.187    95375671.966 8        49.000    23686495.247    92950866.569 8        48.500  
E19  23353987.101   122726101.582 8        47.500    23353985.671    92841501.702 9        54.250    23353984.691    99615342.697 8        49.500    23353984.841    94036887.893 8        52.500    23353987.481    91646121.556 8        51.500  
E33  25981955.764   136536106.387 7        45.500    25981956.124   103288695.238 8        52.250    25981954.944   110824777.689 7        46.000    25981955.044   104618592.174 8        50.250    25981957.974   101958798.341 8        49.500  
C19  22520170.218   117268514.830 8        48.000    22520165.848    89526769.995 9        55.250    22520162.008    95290276.812 8        51.750    22520165.298    90679467.495 8        53.250    22520167.598    88374075.973 8        53.250    22520166.598   118344369.393 8        47.500  
C20  22138233.409   115279669.163 8        50.750    22138226.349    88008403.270 9        57.000    22138222.179    93674163.755 8        53.000    22138225.769    89141558.038 9        55.000    22138227.979    86875275.978 9        55.500    22138230.299   116337269.451 8        50.000  
C23  26068166.642   135743802.900 6        39.750    26068159.532   103631385.698 8        48.250    26068155.592   110302921.231 7        42.250    26068159.052   104965694.708 7        45.500    26068161.462   102297091.157 7        45.750    26068163.112   136989161.113 6        39.000  
C29  22688076.005   118142774.879 8        48.500    22688071.005    90194183.563 9        55.000    22688071.065    96000680.490 8        51.000    22688070.265    91355481.356 8        53.000    22688072.885    89032900.243 8        52.500    22688073.095   119226648.827 7        47.000  
C30  25594732.674   133278469.740 6        39.000    25594733.974   101749280.919 7        44.250    25594733.404   108299674.083 6        41.000    25594733.674   103059352.449 7        41.500    25594736.144   100439217.866 7        41.500    25594730.164   134501190.572 6        38.000  
C32  25454209.612   132546795.477 6        41.250    25454212.072   101190741.032 8        49.000    25454209.552   107705154.492 7        43.500    25454211.822   102493623.890 7        46.500    25454213.922    99887872.645 7        46.000    25454207.902   133762797.118 7        41.500  
C35  23559769.590   122681958.741 7        46.500    23559766.510    93659534.761 8        53.000    23559765.790    99689109.447 8        49.500    23559766.130    94865450.648 8        50.750    23559767.970    92453630.352 8        50.750    23559766.610   123807447.148 7        45.000  
C37  24917387.358   129751426.506 7        41.750    24917390.498    99056653.238 8        49.250    24917388.538   105433686.221 7        45.750    24917390.038   100332060.669 7        47.000    24917392.398    97781264.289 7        46.750    24917386.448   130941775.492 7        43.250  
C46  25906201.503   134900390.489 4        28.500    25906205.803   102987536.460 7        43.750    25906205.623   109617643.560 6        38.000    25906205.083   104313556.807 7        41.750    25906207.283   101661526.590 6        40.500                                                  
C57  28707772.200   149488907.065 6        38.750                                                    28707891.410   121472502.708 7        42.250                                                                                                                                                  
> 2021 06 24 00 12 30.0000000  0 36      -0.000477867875
G05  23014389.212   120941454.958 7        42.000    23014389.142   120941453.960 7        41.750    23014388.372    94240111.451 7        43.000    23014388.162    94240102.453 7        41.750                                                                                                  
G10  23896061.590   125574742.320 6        37.750    23896061.890   125574667.320 4        26.750    23896063.410    97850407.781 7        42.250    23896063.840    97850395.774 4        26.750    23896062.520    93773297.269 8        47.750                                                  
G13  22200442.102   116664152.200 7        45.250    22200442.122   116664142.192 5        33.250                                                    22200440.252    90907133.436 5        33.250                                                                                                  
G15  20199792.737   106150709.114 8        49.750    20199792.907   106150697.113 7        45.000    20199790.887    82714860.483 8        50.250    20199790.357    82714847.487 7        45.000                                                                                                  
G18  20062882.978   105431192.431 8        49.500    20062883.178   105431191.438 7        45.500    20062881.318    82154188.050 9        55.500    20062881.408    82154184.054 7        45.500    20062885.348    78731094.155 9        58.500    20062882.978   105431189.437 8        50.250  
G20  23331604.020   122608420.625 6        38.250    23331604.910   122608432.637 4        24.000                                                    23331604.190    95539042.807 4        24.000                                                                                                  
G23  21263969.930   111742965.920 7        46.250    21263970.110   111742960.912 6        40.250    21263968.630    87072452.042 8        50.250    21263968.550    87072450.044 6        40.250    21263972.620    83444436.065 9        54.750    21263969.840   111742966.913 8        48.000  
G24  21728580.048   114184594.896 7        44.500    21728580.088   114184511.901 6        37.250    21728581.418    88974968.450 7        47.000    21728581.478    88974957.436 6        37.250    21728582.288    85267683.950 9        54.000                                                  
G27  24571946.549   129126458.454 6        36.750    24571946.739   129126450.453 3        21.000    24571948.779   100618020.003 6        38.250    24571948.279   100618015.004 3        21.000    24571948.329    96425607.312 7        44.000                                                  
G29  23851908.943   125342600.982 6        38.250    23851908.753   125342599.982 4        27.750    23851910.193    97669549.823 6        40.250    23851909.513    97669553.841 4        27.750                                                                                                  
R01  22770201.688   121719720.210 6        39.500    22770201.468   121719800.215 6        39.500    22770203.828    94670898.645 6        36.250    22770206.278    94670947.670 5        34.500                                                  
R06  23754816.616   126760263.106 5        33.250    23754816.396   126760272.116 5        32.750                                                                                                                                                  
R07  20298850.282   108661406.277 8        51.250    20298850.402   108661414.285 8        51.250    20298850.952    84514451.611 8        50.500    20298850.602    84514443.606 8        49.500                                                  
R08  19981966.136   107002601.563 8        50.000    19981966.836   107002620.576 8        49.750    19981965.946    83224297.793 8        51.000    19981965.836    83224284.787 8        50.250                                                  
R09  22792122.787   121708673.566 7        45.750    22792122.917   121708699.572 7        46.000    22792124.697    94662327.681 7        42.500    22792124.927    94662319.678 6        40.500    22792110.737    91385593.975 7        44.750  
R16  23078374.619   123280550.884 6        39.500    23078374.659   123280554.888 6        39.250    23078373.779    95884884.356 6        36.500    23078376.289    95884874.364 5        35.000                                                  
R21  24015846.899   128513608.554 5        29.750    24015847.109   128513626.585 4        29.250    24015849.079    99955021.197 4        28.500    24015849.439    99955059.12914        27.500    24015836.099    96292065.247 5        30.750  
R22  20305188.580   108390491.981 7        41.500    20305188.980   108390486.978 6        41.250    20305189.840    84303713.612 6        37.750    20305189.560    84303706.599 6        37.000                                                  
R23  20280096.918   108484931.494 8        50.750    20280096.608   108484879.494 8        51.000                                                                                                                                                  
R24  23390831.003   125081310.663 7        44.500    23390829.873   125081310.662 7        44.250    23390832.333    97285463.413 6        36.750    23390831.083    97285462.406 6        37.000                                                  
E04  24682457.543   129707261.633 8        48.750    24682456.663    98122726.726 9        56.250    24682455.473   105281887.043 8        50.000    24682455.753    99386107.249 9        54.250    24682458.393    96859344.247 9        53.750  
E11  23440229.239   123179253.743 7        44.000    23440226.339    93184311.783 8        50.500    23440225.129    99983166.063 7        46.250    23440225.329    94384110.246 8        48.000    23440228.089    91984515.369 8        47.750  
E12  21738789.112   114238139.769 8        47.750    21738786.422    86420424.265 9        56.000    21738784.262    92725770.505 8        51.750    21738785.692    87533129.824 9        54.750    21738787.972    85307712.752 8        53.250  
E18  23721398.912   124656779.360 7        44.250    23721400.572    94302041.021 8        51.250    23721398.092   101182447.465 7        45.500    23721399.362    95516229.492 8        48.500    23721402.672    93087850.587 8        48.750  
E19  23359807.225   122756685.992 8        47.500    23359805.705    92864638.606 9        54.250    23359804.725    99640167.702 8        49.250    23359804.865    94060322.701 8        52.500    23359807.525    91668960.557 8        51.250  
E33  25998188.686   136621412.377 7        45.000    25998189.376   103353228.616 8        52.500    25998188.076   110894019.539 7        45.750    25998188.666   104683956.464 8        51.000    25998190.886   102022500.814 8        48.750  
C19  22511927.713   117225595.491 8        48.000    22511923.583    89494003.935 9        55.000    22511919.753    95255401.343 8        51.750    22511923.033    90646279.549 8        52.750    22511925.293    88341731.795 8        53.000    22511924.283   118301056.294 7        47.000  
C20  22143045.019   115304723.183 8        50.750    22143037.739    88027530.354 9        56.750    22143033.469    93694522.196 8        53.250    22143037.129    89160931.397 9        55.250    22143039.309    86894156.787 9        55.250    22143041.779   116362553.331 8        50.250  
C23  26071116.625   135759159.802 6        40.000    26071108.755   103643109.687 8        48.500    26071105.245   110315399.985 7        42.750    26071108.435   104977569.659 7        46.250    26071110.705   102308664.192 7        45.750    26071112.505   137004658.865 6        39.000  
C29  22699784.101   118203747.637 8        48.250    22699780.221    90240732.195 9        54.750    22699780.201    96050225.826 8        51.000    22699779.421    91402629.326 8        53.000    22699782.101    89078849.534 8        52.500    22699782.331   119288180.961 7        47.000  
C30  25614480.456   133381289.019 6        40.000    25614479.696   101827776.553 7        44.750    25614478.656   108383223.098 6        40.500    25614479.026   103138858.775 7        41.500    25614482.056   100516702.805 7        42.500    25614475.746   134604953.146 6        38.250  
C32  25468058.018   132618905.835 6        41.250    25468060.228   101245792.472 8        49.250    25468057.498   107763750.041 7        43.500    25468059.598   102549384.147 7        46.750    25468062.268    99942215.261 7        46.250    25468055.878   133835569.019 7        41.500  
C35  23554681.274   122655465.616 7        46.250    23554678.754    93639309.011 8        53.250    23554677.954    99667581.616 8        49.500    23554678.454    94844964.483 8        50.750    23554680.334    92433665.021 8        50.750    23554679.104   123780710.957 7        45.250  
C37  24907425.299   129699551.644 7        42.000    24907428.429    99017050.268 8        49.500    24907426.419   105391533.698 7        46.000    24907428.019   100291947.785 7        47.000    24907430.359    97742171.233 7        46.750    24907423.909   130889424.718 7        43.000  
C46  25889330.888   134812530.372 5        30.250    25889333.048   102920461.212 7        43.500    25889332.898   109546250.120 6        37.250    25889332.728   104245617.924 6        41.250    25889334.978   101595314.982 6        40.250                                                  
C57  28695274.692   149423837.376 6        39.000                                                    28695395.772   121419628.293 7        42.750                                                                                                                                                  
> 2021 06 24 00 13  0.0000000  0 36      -0.000477865131
G05  23028870.739   121017553.654 7        43.250    23028870.409   121017552.655 7        41.750    23028870.169    94299409.096 7        42.750    23028869.589    94299400.084 7        41.750                                                                                                  
G10  23881307.940   125497208.391 6        39.000    23881308.400   125497133.387 4        26.750    23881309.080    97789991.815 7        42.500    23881309.760    97789979.816 4        26.750    23881307.980    93715398.645 8        48.000                                                  
G13  22217609.286   116754365.977 7        45.500    22217609.346   116754355.980 5        33.500                                                    22217607.846    90977429.858 5        33.500                                                                                                  
G15  20208841.943   106198263.989 8        49.750    20208842.173   106198251.982 7        45.000    20208839.823    82751916.213 8        50.250    20208839.723    82751903.219 7        45.000                                                                                                  
G18  20059161.743   105411637.884 8        49.500    20059161.913   105411636.891 7        45.250    20059160.083    82138950.738 9        55.250    20059160.133    82138946.743 7        45.250    20059164.283    78716491.731 9        58.750    20059161.693   105411634.889 8        50.250  
G20  23346835.331   122688453.509 6        38.500    23346835.081   122688465.509 3        23.000                                                    23346833.951    95601406.075 3        23.000                                                                                                  
G23  21254049.932   111690835.393 7        46.750    21254049.912   111690830.396 6        40.000    21254048.152    87031830.870 8        49.750    21254048.222    87031828.875 6        40.000    21254052.392    83405507.446 9        55.000    21254049.672   111690836.396 8        48.000  
G24  21712722.208   114101262.570 7        44.750    21712722.948   114101179.565 6        38.000    21712724.058    88910034.230 8        47.750    21712723.838    88910023.224 6        38.000    21712724.588    85205455.323 9        54.250                                                  
G27  24562972.692   129079306.103 6        36.250    24562974.562   129079298.090 3        21.250    24562975.532   100581277.892 6        38.250    24562975.812   100581272.891 3        21.250    24562976.112    96390396.124 7        44.250                                                  
G29  23871761.096   125446919.644 6        39.750    23871760.366   125446918.651 4        28.500    23871761.536    97750836.998 6        41.000    23871761.096    97750841.013 4        28.500                                                                                                  
R01  22754754.899   121637146.515 6        39.750    22754755.269   121637226.512 6        39.500    22754756.489    94606674.721 6        35.750    22754761.549    94606723.726 5        34.500                                                  
R06  23772788.093   126856162.046 5        32.000    23772788.273   126856171.026 5        32.000                                                                                                                                                  
R07  20309871.507   108720404.229 8        51.000    20309871.647   108720412.233 8        51.500    20309871.707    84560338.878 8        50.250    20309871.877    84560330.874 8        49.500                                                  
R08  19977404.746   106978171.725 8        50.250    19977404.926   106978190.731 8        50.000    19977403.746    83205296.804 8        50.750    19977403.666    83205283.801 8        50.000                                                  
R09  22778173.762   121634193.045 7        45.000    22778174.482   121634219.054 7        45.000    22778176.452    94604398.433 7        42.000    22778176.312    94604390.434 6        40.500    22778162.822    91329669.976 7        45.000  
R16  23080522.384   123292026.020 6        40.000    23080522.694   123292030.010 6        39.250    23080523.194    95893809.445 6        37.500    23080524.974    95893799.445 5        35.000                                                  
R21  24041824.691   128652617.194 5        29.500    24041824.671   128652635.224 4        27.500    24041843.301   100063138.974 5        31.250                                                    24041812.931    96396220.943 5        30.500  
R22  20322987.657   108485507.317 7        42.250    20322988.787   108485502.316 7        41.750    20322990.377    84377614.375 6        38.000    20322989.767    84377607.380 6        37.250                                                  
R23  20268792.625   108424462.547 8        50.500    20268792.535   108424410.548 8        50.750                                                                                                                                                  
R24  23368240.729   124960512.199 7        44.000    23368239.779   124960512.202 7        43.250    23368241.669    97191509.108 6        36.750    23368241.469    97191508.083 6        36.500                                                  
E04  24673434.880   129659847.072 8        49.000    24673433.970    98086857.940 9        56.250    24673433.080   105243401.210 8        50.000    24673432.990    99349776.635 9        54.250    24673435.790    96823937.291 9        54.000  
E11  23428427.302   123117234.945 7        43.750    23428424.562    93137394.973 8        50.500    23428423.332    99932826.140 7        46.500    23428423.472    94336589.350 8        48.250    23428426.062    91938202.644 8        47.750  
E12  21742826.932   114259358.472 8        48.000    21742824.212    86436476.064 9        56.250    21742822.242    92742993.463 8        52.000    21742823.512    87549388.296 9        54.750    21742825.722    85323557.878 9        53.500  
E18  23756325.693   124840319.636 7        44.500    23756327.183    94440887.987 8        51.500    23756324.703   101331424.912 7        45.250    23756326.123    95656864.194 8        48.750    23756329.323    93224909.821 8        49.250  
E19  23365666.440   122787477.637 8        47.750    23365665.180    92887932.278 9        54.000    23365664.150    99665160.913 8        49.250    23365664.370    94083916.289 8        52.500    23365666.950    91691954.309 8        51.000  
E33  26014456.647   136706900.530 7        44.500    26014456.977   103417899.812 8        52.000    26014456.337   110963409.249 7        46.250    26014456.437   104749460.329 8        50.500    26014458.817   102086339.348 8        48.500  
C19  22503718.456   117182847.999 8        48.500    22503714.376    89461369.072 9        55.500    22503710.466    95220665.519 8        51.750    22503713.896    90613224.496 8        53.250    22503716.126    88309517.126 9        53.500    22503715.236   118257916.618 7        47.250  
C20  22147889.171   115329947.519 8        50.750    22147881.821    88046787.459 9        57.000    22147877.561    93715019.027 8        53.000    22147881.191    89180436.450 9        55.250    22147883.421    86913165.947 9        55.250    22147885.771   116388009.082 8        50.000  
C23  26074154.018   135774973.575 6        40.750    26074145.788   103655182.483 8        49.250    26074142.798   110328250.007 7        42.750    26074145.398   104989797.904 7        47.000    26074147.428   102320581.538 7        46.000    26074150.178   137020617.765 6        40.000  
C29  22711568.384   118265109.338 8        48.500    22711564.114    90287577.760 9        54.750    22711564.054    96100087.207 8        50.750    22711563.344    91450078.061 8        52.750    22711565.854    89125091.936 8        52.500    22711566.284   119350105.612 7        47.000  
C30  25634220.996   133484094.095 6        39.250    25634222.586   101906261.341 7        45.500    25634221.706   108466760.588 6        39.500    25634222.066   103218354.113 7        42.000    25634225.046   100594177.048 7        43.500    25634218.116   134708701.401 6        38.000  
C32  25481907.552   132691022.352 7        41.500    25481909.472   101300848.592 8        49.250    25481906.382   107822350.573 7        43.250    25481909.132   102605149.151 7        46.750    25481911.472    99996562.503 7        46.250    25481905.722   133908347.161 6        41.250  
C35  23549688.027   122629462.435 7        46.500    23549685.087    93619457.319 8        53.000    23549684.417    99646451.918 8        49.250    23549684.527    94824857.181 8        50.750    23549686.787    92414068.929 8        50.750    23549684.917   123754469.215 7        45.250  
C37  24897525.905   129648002.631 7        42.500    24897528.975    98977696.052 8        49.750    24897526.875   105349645.927 7        46.250    24897528.485   100252086.860 7        47.250    24897530.705    97703323.726 7        47.000    24897524.155   130837402.770 7        42.500  
C46  25872443.258   134724606.717 5        30.500    25872448.068   102853337.435 7        44.250    25872448.248   109474804.978 6        38.750    25872448.028   104177629.881 7        42.000    25872450.128   101529055.470 7        41.500                                                  
C57  28682850.559   149359140.719 6        39.500                                                    28682971.529   121367056.961 7        42.000                                                                                                                                                  
> 2021 06 24 00 13 30.0000000  0 36      -0.000477865476
G05  23043373.804   121093768.792 7        42.500    23043373.574   121093767.795 7        41.500    23043373.024    94358797.466 7        42.000    23043372.784    94358788.459 7        41.500                                                                                                  
G10  23866558.800   125419699.443 6        39.750    23866558.860   125419624.438 5        29.500    23866559.750    97729595.306 7        43.500    23866560.240    97729583.290 5        29.500    23866558.340    93657518.699 8        47.750                                                  
G13  22234822.392   116844821.648 7        45.250    22234822.112   116844811.646 5        34.000                                                    22234820.902    91047914.778 5        34.000                                                                                                  
G15  20217970.452   106246234.911 8        49.750    20217970.832   106246222.914 7        45.000    20217968.512    82789296.144 8        50.500    20217968.402    82789283.154 7        45.000                                                                                                  
G18  20055540.658   105392609.365 8        49.500    20055540.878   105392608.371 7        45.000    20055539.068    82124123.318 9        55.000    20055539.168    82124119.321 7        45.000    20055543.278    78702282.119 9        58.500    20055540.558   105392606.367 8        50.250  
G20  23362090.929   122768625.257 6        38.500    23362090.609   122768637.257 4        23.500                                                    23362089.609    95663877.525 4        23.500                                                                                                  
G23  21244162.378   111638876.137 7        46.750    21244162.368   111638871.156 6        40.250    21244160.708    86991343.157 8        50.000    21244160.428    86991341.162 6        40.250    21244164.978    83366706.731 9        55.000    21244162.178   111638877.134 8        48.000  
G24  21696937.587   114018311.515 7        44.750    21696937.747   114018228.505 6        38.000    21696938.897    88845397.095 8        48.000    21696939.047    88845386.087 6        38.000    21696939.327    85143511.415 9        53.750                                                  
G27  24554098.513   129032663.596 6        37.000    24554098.583   129032655.585 3        20.000    24554098.763   100544933.090 6        37.000    24554100.033   100544928.109 3        20.000    24554099.593    96355565.705 7        43.500                                                  
G29  23891622.328   125551296.880 6        39.500    23891622.618   125551295.880 4        28.500    23891623.268    97832169.783 6        40.250    23891623.098    97832173.793 4        28.500                                                                                                  
R01  22739344.176   121554778.870 6        38.750    22739346.316   121554858.872 6        38.500    22739348.336    94542611.052 6        35.750    22739349.516    94542660.067 5        34.250                                                  
R06  23790745.516   126951986.237 5        33.000    23790747.586   126951995.239 5        31.500                                                                                                                                                  
R07  20320930.930   108779601.361 8        51.250    20320930.420   108779609.370 8        51.500    20320930.170    84606381.072 8        50.000    20320930.370    84606373.069 8        49.250                                                  
R08  19972907.101   106954091.112 8        50.000    19972907.881   106954110.129 8        50.000    19972906.761    83186567.448 8        50.750    19972906.871    83186554.448 8        50.000                                                  
R09  22764310.748   121560169.345 7        44.250    22764311.778   121560195.340 7        44.750    22764315.148    94546824.508 7        43.250    22764314.098    94546816.493 6        41.250    22764300.898    91274088.973 7        45.500  
R16  23082807.545   123304233.939 6        40.000    23082808.285   123304237.951 6        39.500    23082810.095    95903304.526 6        36.500    23082809.125    95903294.515 5        34.250                                                  
R21  24067804.638   128791637.485 4        27.500    24067802.648   128791655.549 4        26.000    24067807.978   100171265.811 5        30.250                                                    24067790.688    96500385.413 4        25.500  
R22  20340895.290   108581099.124 7        42.000    20340896.610   108581094.123 7        41.500    20340897.070    84451963.523 6        38.000    20340896.950    84451956.523 6        37.250                                                  
R23  20257623.867   108364719.044 8        50.500    20257624.207   108364667.044 8        50.750                                                                                                                                                  
R24  23345699.597   124839980.359 7        43.750    23345699.217   124839980.365 7        43.750    23345702.767    97097762.139 6        39.500    23345701.257    97097761.130 6        37.250                                                  
E04  24664455.133   129612659.483 8        48.500    24664454.423    98051160.852 9        56.000    24664453.233   105205099.614 8        50.500    24664453.373    99313619.931 9        54.000    24664456.233    96788699.825 9        53.750  
E11  23416675.111   123055476.149 7        44.000    23416672.231    93090674.838 8        50.500    23416670.911    99882697.246 7        46.500    23416671.171    94289267.672 8        48.000    23416673.831    91892084.055 8        47.750  
E12  21746941.556   114280980.034 8        48.000    21746938.656    86452832.633 9        56.250    21746936.576    92760543.437 8        52.250    21746937.896    87565955.467 9        54.750    21746940.146    85339703.845 9        53.500  
E18  23791270.074   125023955.198 7        44.000    23791272.024    94579807.033 8        51.750    23791269.634   101480479.689 7        45.250    23791270.884    95797571.898 8        48.750    23791274.284    93362040.201 8        49.500  
E19  23371565.081   122818475.395 8        47.750    23371563.851    92911381.877 9        54.000    23371562.881    99690321.431 8        49.250    23371563.051    94107667.817 8        52.250    23371565.621    91715101.984 8        51.000  
E33  26030758.882   136792569.498 7        45.000    26030759.402   103482707.771 8        52.250    26030758.382   111032945.673 7        46.000    26030758.332   104815102.717 8        49.750    26030761.772   102150312.859 8        49.750  
C19  22495542.142   117140272.191 8        48.250    22495538.102    89428865.272 9        55.500    22495534.202    95186069.196 8        52.000    22495537.612    90580302.189 8        53.250    22495539.902    88277431.833 9        53.500    22495538.922   118214950.203 8        47.500  
C20  22152765.626   115355341.539 8        50.500    22152758.496    88066174.112 9        57.000    22152754.226    93735653.751 8        53.250    22152757.836    89200072.719 9        55.250    22152760.066    86932302.984 9        55.250    22152762.546   116413636.074 8        50.000  
C23  26077276.757   135791244.174 6        40.250    26077270.447   103667604.001 8        49.250    26077267.687   110341471.185 7        43.250    26077270.097   105002379.360 7        47.250    26077272.207   102332843.115 7        46.000    26077274.617   137037037.621 6        40.000  
C29  22723426.656   118326858.068 8        48.250    22723422.336    90334718.801 9        54.750    22723422.436    96150263.087 8        50.750    22723421.646    91497826.068 8        53.000    22723424.276    89171626.009 8        52.500    22723424.306   119412420.848 7        46.750  
C30  25653960.250   133586882.944 6        39.000    25653962.310   101984733.714 7        46.250    25653960.670   108550284.868 6        38.250    25653962.010   103297836.877 7        43.250    25653964.410   100671639.038 7        44.000    25653958.420   134812433.229 6        37.500  
C32  25495756.567   132763144.729 6        41.250    25495759.847   101355909.236 8        49.000    25495756.697   107880955.907 7        43.250    25495759.457   102660918.735 7        46.750    25495761.677   100050914.209 7        46.000    25495755.957   133981131.254 7        41.500  
C35  23544788.764   122603950.027 7        46.500    23544785.644    93599980.282 8        53.000    23544784.864    99625720.996 8        49.500    23544785.324    94805129.365 8        50.750    23544787.164    92394842.676 8        50.500    23544786.144   123728722.746 7        45.250  
C37  24887689.129   129596781.599 7        42.750    24887692.419    98938592.242 8        50.000    24887690.409   105308024.682 7        46.000    24887691.979   100212479.560 8        47.500    24887694.179    97664723.402 7        47.000    24887687.949   130785711.813 7        42.500  
C46  25855547.616   134636621.017 5        30.750    25855551.256   102786166.376 7        43.500    25855551.346   109403309.564 6        38.250    25855550.616   104109593.964 6        40.250    25855553.386   101462749.287 6        41.000                                                  
C57  28670497.988   149294818.985 6        39.250                                                    28670619.168   121314790.280 7        42.000                                                                                                                                                  
> 2021 06 24 00 14  0.0000000  0 36      -0.000477865460
G05  23057899.193   121170100.227 7        42.000    23057899.193   121170099.227 7        41.500    23057898.503    94418276.446 7        42.000    23057898.463    94418267.458 7        41.500                                                                                                  
G10  23851813.887   125342215.623 6        40.000    23851813.457   125342140.625 4        29.250    23851815.747    97669218.392 7        43.750    23851815.367    97669206.377 4        29.250    23851813.917    93599657.489 8        48.500                                                  
G13  22252081.247   116935517.133 7        45.250    22252081.067   116935507.138 5        33.500                                                    22252079.287    91118586.562 5        33.500                                                                                                  
G15  20227178.030   106294620.162 8        49.750    20227178.180   106294608.162 7        44.750    20227175.980    82826998.926 8        50.500    20227175.850    82826985.932 7        44.750                                                                                                  
G18  20052020.150   105374108.293 8        49.750    20052020.270   105374107.298 7        45.000    20052018.350    82109706.894 9        55.250    20052018.500    82109702.896 7        45.000    20052022.600    78688466.381 9        58.500    20052020.070   105374105.294 8        50.250  
G20  23377374.222   122848935.520 6        38.250    23377373.282   122848947.507 3        22.500                                                    23377372.242    95726456.901 3        22.500                                                                                                  
G23  21234307.301   111587088.746 7        46.750    21234307.531   111587083.749 6        40.250    21234305.721    86950989.356 8        49.750    21234305.911    86950987.358 6        40.250    21234310.081    83328034.334 9        55.000    21234307.201   111587089.754 8        48.000  
G24  21681225.608   113935744.826 7        45.000    21681226.018   113935661.824 6        38.000    21681226.908    88781059.474 8        48.000    21681226.768    88781048.464 6        38.000    21681227.668    85081854.532 9        54.000                                                  
G27  24545319.619   128986532.332 6        36.000    24545319.969   128986524.338 3        19.000    24545321.799   100508986.681 6        37.500    24545322.159   100508981.692 3        19.000    24545320.989    96321117.060 7        42.500                                                  
G29  23911495.322   125655728.987 6        40.000    23911495.632   125655727.998 4        29.250    23911496.242    97913545.363 6        40.500    23911496.422    97913549.367 4        29.250                                                                                                  
R01  22723977.485   121472617.390 6        39.250    22723976.505   121472697.382 6        39.000    22723978.285    94478707.743 5        35.250    22723978.965    94478756.742 5        33.750                                                  
R06  23808692.203   127047734.719 5        33.750    23808690.863   127047743.711 5        32.250                                                                                                                                                  
R07  20332026.057   108838995.280 8        51.250    20332025.607   108839003.284 8        51.000    20332025.777    84652576.323 8        50.500    20332025.877    84652568.318 8        49.250                                                  
R08  19968475.576   106930358.573 8        50.000    19968476.056   106930377.584 8        50.000    19968474.966    83168108.803 8        51.000    19968474.966    83168095.802 8        50.000                                                  
R09  22750536.220   121486606.787 7        44.250    22750536.410   121486632.784 7        44.500    22750537.760    94489609.264 7        43.000    22750538.010    94489601.246 6        41.250    22750524.860    91218854.220 7        45.250  
R16  23085229.241   123317174.552 6        38.750    23085230.331   123317178.553 6        39.000    23085228.181    95913369.413 6        36.250    23085232.041    95913359.407 5        34.250                                                  
R21  24093792.690   128930665.198 4        26.500    24093785.320   128930683.261 4        25.250    24093785.810   100279398.170 4        27.750                                                    24093772.720    96604556.129 4        24.000  
R22  20358909.342   108677264.036 7        41.500    20358911.242   108677259.038 6        41.250    20358913.832    84526758.422 6        38.250    20358912.462    84526751.418 6        37.250                                                  
R23  20246592.083   108305703.917 8        50.250    20246591.733   108305651.911 8        50.750                                                                                                                                                  
R24  23323211.099   124719719.232 7        43.500    23323210.169   124719719.221 7        43.000    23323211.209    97004225.731 6        38.500    23323211.239    97004224.726 6        38.250                                                  
E04  24655518.663   129565698.768 8        48.500    24655518.043    98015635.413 9        56.000    24655517.123   105166982.175 8        50.500    24655517.073    99277637.070 9        54.250    24655519.933    96753631.798 9        53.750  
E11  23404972.619   122993979.119 7        44.250    23404969.719    93044152.753 8        50.750    23404968.439    99832780.839 7        46.250    23404968.579    94242146.585 8        48.250    23404971.479    91846160.965 8        47.750  
E12  21751132.486   114303004.418 8        47.750    21751129.776    86469493.926 9        56.250    21751127.556    92778420.358 8        51.750    21751128.996    87582831.280 9        54.500    21751131.336    85356150.615 8        53.250  
E18  23826232.628   125207680.628 7        44.500    23826234.048    94718794.052 8        52.250    23826231.488   101629607.439 7        44.750    23826232.968    95938348.469 8        49.250    23826236.238    93499237.677 8        50.250  
E19  23377503.140   122849678.142 8        47.500    23377501.530    92934986.545 9        54.000    23377500.450    99715648.327 8        49.500    23377500.750    94131576.404 8        52.250    23377503.320    91738402.728 8        51.250  
E33  26047095.065   136878417.902 7        44.500    26047096.065   103547651.483 8        52.250    26047094.915   111102627.794 7        46.250    26047094.865   104880882.643 8        50.000    26047097.755   102214420.371 8        49.250  
C19  22487398.678   117097867.828 8        48.000    22487394.788    89396492.367 9        55.500    22487390.878    95151612.195 8        51.750    22487394.258    90547512.469 8        53.000    22487396.588    88245475.745 9        53.500    22487395.638   118172156.810 8        47.750  
C20  22157674.959   115380904.653 8        50.750    22157667.619    88085689.847 9        56.750    22157663.369    93756425.868 8        53.000    22157666.969    89219839.726 9        55.250    22157669.229    86951567.445 9        55.250    22157671.689   116439433.709 8        49.750  
C23  26080489.865   135807971.358 6        40.000    26080482.685   103680374.087 8        49.000    26080479.055   110355063.394 7        43.000    26080482.055   105015313.864 7        46.750    26080484.615   102345448.786 7        46.250    26080486.635   137053918.281 6        40.250  
C29  22735358.845   118388991.842 8        48.250    22735354.505    90382153.793 9        54.750    22735354.645    96200751.853 8        50.750    22735353.735    91545871.815 8        52.750    22735356.395    89218450.250 8        52.500    22735356.325   119475124.671 7        46.500  
C30  25673696.318   133689653.357 6        39.000    25673698.498   102063192.026 7        47.000    25673696.468   108633794.204 6        38.000    25673698.148   103377305.392 7        44.250    25673700.518   100749087.135 7        44.250    25673693.838   134916146.540 6        37.750  
C32  25509609.466   132835272.804 6        41.000    25509611.206   101410974.173 8        48.750    25509608.676   107939565.826 7        43.750    25509610.816   102716692.666 7        46.750    25509613.156   100105270.163 7        46.000    25509607.026   134053921.017 6        41.000  
C35  23539983.904   122578929.146 7        46.750    23539980.624    93580878.506 8        52.750    23539979.904    99605389.488 8        49.500    23539980.234    94785781.644 8        50.500    23539982.354    92375986.846 8        50.500    23539980.894   123703472.320 7        45.250  
C37  24877917.214   129545890.674 7        43.250    24877919.254    98899740.434 8        49.750    24877917.624   105266671.673 7        46.500    24877919.074   100173127.516 8        47.750    24877920.804    97626371.836 7        47.000    24877914.424   130734353.986 7        42.750  
C46  25838635.631   134548575.927 4        29.250    25838642.831   102718950.023 7        42.000    25838642.571   109331765.919 6        36.750    25838641.981   104041512.141 6        38.750    25838644.571   101396398.392 6        40.000                                                  
C57  28658218.439   149230874.007 6        39.000                                                    28658339.039   121262829.788 7        41.750                                                                                                                                                  
